[{"Name":"Sharia Claybourne","Location":"4 Columbus Street","Phone":"375-494-6727","Company":"Ritchie, Abbott and Durgan"},
{"Name":"Lydie Coupar","Location":"6756 Badeau Place","Phone":"284-233-9654","Company":"O'Reilly-Schmitt"},
{"Name":"Manny Antognoni","Location":"67652 Pierstorff Road","Phone":"608-398-7518","Company":"Homenick Inc"},
{"Name":"Granville Liepins","Location":"68615 Nelson Crossing","Phone":"969-492-0811","Company":"Cummerata Inc"},
{"Name":"Joseph Cockson","Location":"53 Carioca Park","Phone":"671-659-3443","Company":"Bins Group"},
{"Name":"Oliy Leadley","Location":"3406 Dahle Trail","Phone":"452-226-6583","Company":"O'Kon and Sons"},
{"Name":"Freida Tulloch","Location":"06 Hanson Avenue","Phone":"811-403-4174","Company":"Hintz-Aufderhar"},
{"Name":"Griffie Weatherill","Location":"65 Grover Road","Phone":"122-417-3267","Company":"Nikolaus LLC"},
{"Name":"Andonis McNickle","Location":"0 Hintze Lane","Phone":"852-761-2434","Company":"Spinka, Gutmann and Zulauf"},
{"Name":"Helen Mollison","Location":"1950 Main Avenue","Phone":"903-355-2045","Company":"Rath-Bruen"},
{"Name":"Marti Miskelly","Location":"92 Sauthoff Trail","Phone":"497-731-2274","Company":"Lynch-Friesen"},
{"Name":"Lesley Bodycomb","Location":"5758 Scofield Point","Phone":"611-974-7200","Company":"Kub-Turner"},
{"Name":"Mallory Lievesley","Location":"87 Mandrake Circle","Phone":"345-920-6874","Company":"Lebsack, Sauer and Ryan"},
{"Name":"Rozalin Gannaway","Location":"6 Toban Alley","Phone":"180-430-8842","Company":"Thiel Group"},
{"Name":"Johnna Maryman","Location":"56403 Park Meadow Junction","Phone":"971-616-5905","Company":"Heaney-Nader"},
{"Name":"Rowe Ovenell","Location":"1939 Iowa Point","Phone":"109-910-0501","Company":"Feil-Maggio"},
{"Name":"Edithe Corbin","Location":"6 Elka Lane","Phone":"506-871-8987","Company":"Powlowski Group"},
{"Name":"Ossie Craigg","Location":"72 Sheridan Drive","Phone":"681-920-8401","Company":"Hackett Group"},
{"Name":"Janeczka McVaugh","Location":"4055 Coleman Way","Phone":"495-194-3382","Company":"Mayer, Zieme and Bashirian"},
{"Name":"Hazlett Albasiny","Location":"0 Spenser Plaza","Phone":"307-561-8753","Company":"Walsh, Bechtelar and Shanahan"},
{"Name":"Omar McElane","Location":"198 Prairieview Crossing","Phone":"249-638-6439","Company":"Mohr, Kilback and Hammes"},
{"Name":"Martica Heathwood","Location":"0 Utah Park","Phone":"293-764-5732","Company":"Altenwerth, Marvin and Oberbrunner"},
{"Name":"Karna Divver","Location":"69 Dwight Junction","Phone":"757-870-0423","Company":"Wintheiser, Gaylord and Russel"},
{"Name":"Keene Hackly","Location":"62128 Johnson Trail","Phone":"654-974-8007","Company":"Champlin, Conroy and Altenwerth"},
{"Name":"Raphael Cordelette","Location":"63 Del Mar Street","Phone":"384-592-1005","Company":"Treutel-Bruen"},
{"Name":"Dwayne Rottery","Location":"4 Pawling Drive","Phone":"143-249-8225","Company":"Walker, Ziemann and Cruickshank"},
{"Name":"Kissie Styan","Location":"8998 Morning Road","Phone":"392-394-2801","Company":"Bins LLC"},
{"Name":"Jorge Blanking","Location":"4214 Fisk Trail","Phone":"828-756-8553","Company":"Gusikowski, Hegmann and Grant"},
{"Name":"Joycelin Duplock","Location":"03 Hanson Hill","Phone":"959-640-0982","Company":"Emmerich, Mraz and Balistreri"},
{"Name":"Audy Kerner","Location":"858 Corry Street","Phone":"901-832-0582","Company":"Harris-Mraz"},
{"Name":"Arlen Launder","Location":"1 Hovde Parkway","Phone":"637-354-0557","Company":"Jakubowski and Sons"},
{"Name":"Prentiss Gellert","Location":"6 School Street","Phone":"387-769-5257","Company":"Rau-McKenzie"},
{"Name":"Lillian Wodeland","Location":"7436 Algoma Plaza","Phone":"718-244-1445","Company":"Pfeffer Inc"},
{"Name":"Gerard Hayford","Location":"7294 Gulseth Street","Phone":"143-386-1027","Company":"Nolan LLC"},
{"Name":"Lisle Rosingdall","Location":"9 Ridgeview Drive","Phone":"217-684-9756","Company":"Carter-Rosenbaum"},
{"Name":"Brody Mackiewicz","Location":"8938 Comanche Plaza","Phone":"861-860-2435","Company":"Ryan-Lind"},
{"Name":"Shirley Dooley","Location":"4 Delladonna Court","Phone":"259-389-8755","Company":"Schuppe-Waters"},
{"Name":"Rosalinda Friend","Location":"40 Memorial Road","Phone":"857-181-7257","Company":"Moore, Kuhlman and Heller"},
{"Name":"Cher Prickett","Location":"2 Ridge Oak Road","Phone":"372-349-4897","Company":"Doyle-Little"},
{"Name":"Chelsey Cruickshank","Location":"77 Eastlawn Pass","Phone":"577-546-5763","Company":"Powlowski-Stanton"},
{"Name":"Mollee Bycraft","Location":"44316 Corscot Trail","Phone":"246-573-6470","Company":"Oberbrunner LLC"},
{"Name":"Dacia Duxfield","Location":"2 Victoria Avenue","Phone":"995-779-2799","Company":"Harber Group"},
{"Name":"Nady Moxley","Location":"30496 Dovetail Street","Phone":"569-317-9620","Company":"Thiel, Smitham and Goodwin"},
{"Name":"Wyn Longshaw","Location":"9 South Pass","Phone":"338-343-4778","Company":"O'Hara, Fadel and Bailey"},
{"Name":"Frans Jessop","Location":"6954 Sutteridge Avenue","Phone":"561-494-8537","Company":"VonRueden, Barton and Sanford"},
{"Name":"Leonerd Bendson","Location":"41 Center Drive","Phone":"598-349-0282","Company":"Lowe Group"},
{"Name":"Kalil Mapholm","Location":"4 Straubel Center","Phone":"955-157-1769","Company":"Rutherford-Schuppe"},
{"Name":"Sloane Knightsbridge","Location":"759 Continental Circle","Phone":"379-484-1400","Company":"Botsford-Rippin"},
{"Name":"Lynnette Comiskey","Location":"125 Carioca Junction","Phone":"233-339-5046","Company":"Denesik LLC"},
{"Name":"Eberhard Lindmark","Location":"2 Golf Avenue","Phone":"196-569-1501","Company":"West-Russel"},
{"Name":"Zared Giraudat","Location":"622 Waubesa Crossing","Phone":"220-614-1494","Company":"Kuhlman-Reinger"},
{"Name":"Reginauld Thing","Location":"7 Monument Hill","Phone":"322-669-3571","Company":"Osinski, Kuhic and Schowalter"},
{"Name":"Iggy MacKomb","Location":"90801 Milwaukee Circle","Phone":"995-338-7476","Company":"Littel-Rau"},
{"Name":"Irena Caltera","Location":"4 Del Sol Hill","Phone":"877-513-1621","Company":"Schuppe, Nader and Botsford"},
{"Name":"Fremont Cavet","Location":"34 Quincy Street","Phone":"692-971-3389","Company":"Hodkiewicz-Weissnat"},
{"Name":"Lira Milverton","Location":"734 Meadow Vale Parkway","Phone":"489-170-3810","Company":"Spencer Group"},
{"Name":"Merrile Prosser","Location":"6 Oneill Park","Phone":"392-292-5965","Company":"Roberts LLC"},
{"Name":"Gwynne Mahood","Location":"54989 Banding Center","Phone":"339-277-3263","Company":"Mante-Erdman"},
{"Name":"Kandace Joiner","Location":"848 Oneill Hill","Phone":"588-156-2050","Company":"Hilpert, Vandervort and Price"},
{"Name":"Priscilla Hilary","Location":"1966 Elka Circle","Phone":"311-503-6678","Company":"Koch, Halvorson and Tromp"},
{"Name":"Corri Sydall","Location":"0 Clarendon Circle","Phone":"584-798-9804","Company":"Bednar, Considine and Ruecker"},
{"Name":"Candie Despenser","Location":"2 Warner Street","Phone":"290-848-3934","Company":"Wiza, Hahn and Mills"},
{"Name":"Eduardo Cleworth","Location":"2134 Mitchell Junction","Phone":"998-740-9042","Company":"Funk-Leffler"},
{"Name":"Emlynne Hartegan","Location":"62 Wayridge Street","Phone":"414-140-6188","Company":"Stracke-Wiza"},
{"Name":"Alvina Ryce","Location":"9 Lawn Place","Phone":"374-555-8081","Company":"Morissette-Rolfson"},
{"Name":"Wadsworth Fransman","Location":"9275 Nobel Avenue","Phone":"125-256-1140","Company":"Gleichner, Rowe and Leffler"},
{"Name":"Courtney Burdell","Location":"30 Bashford Circle","Phone":"964-410-8272","Company":"Marquardt LLC"},
{"Name":"Mae Folker","Location":"5 Trailsway Junction","Phone":"787-261-7737","Company":"Stracke-Deckow"},
{"Name":"Pembroke Weare","Location":"44503 Elgar Point","Phone":"862-496-9494","Company":"Bins-Kris"},
{"Name":"Reba Shrieves","Location":"4 Reinke Center","Phone":"909-459-6521","Company":"Schaefer-Koss"},
{"Name":"Annecorinne Billingsley","Location":"60950 School Point","Phone":"268-863-7478","Company":"Rodriguez, Bednar and Becker"},
{"Name":"Sabine Berks","Location":"41704 Haas Court","Phone":"540-894-6401","Company":"McClure-Dare"},
{"Name":"Julita Syseland","Location":"22033 Ilene Crossing","Phone":"727-125-2781","Company":"Hirthe-Fadel"},
{"Name":"Dmitri Dunsire","Location":"42 Thompson Pass","Phone":"447-383-3345","Company":"Howell and Sons"},
{"Name":"Faydra McCullouch","Location":"29784 Arrowood Drive","Phone":"217-266-7014","Company":"Hagenes and Sons"},
{"Name":"Dov Petrashkov","Location":"30 Quincy Drive","Phone":"586-969-0605","Company":"Olson and Sons"},
{"Name":"Wynny Newsham","Location":"896 Village Street","Phone":"877-974-2429","Company":"Lakin, Feil and Greenholt"},
{"Name":"Licha Lunnon","Location":"76 Fairview Lane","Phone":"692-182-4935","Company":"Kreiger-D'Amore"},
{"Name":"Hermione Philipsen","Location":"62 Crowley Avenue","Phone":"845-806-6709","Company":"Stehr, Pollich and Streich"},
{"Name":"Jerry Peto","Location":"66940 Vernon Way","Phone":"407-951-5988","Company":"Hahn LLC"},
{"Name":"Demetria Whillock","Location":"43025 Leroy Lane","Phone":"594-838-1171","Company":"Hettinger Group"},
{"Name":"Barrie McGenis","Location":"39957 Moose Center","Phone":"410-919-2519","Company":"Hand, Lynch and Marvin"},
{"Name":"Doyle Devitt","Location":"192 Blaine Pass","Phone":"248-185-4667","Company":"Boyle, McDermott and Koelpin"},
{"Name":"Jo-anne Fulbrook","Location":"8506 Farwell Trail","Phone":"918-839-6838","Company":"Hahn-Johns"},
{"Name":"Art Kollach","Location":"2 Merry Point","Phone":"833-692-3429","Company":"Spencer-Hayes"},
{"Name":"Livy Strike","Location":"187 Crowley Junction","Phone":"812-521-0828","Company":"Bogisich-Cole"},
{"Name":"Uriel Chitty","Location":"7610 Annamark Avenue","Phone":"791-765-9284","Company":"Murphy and Sons"},
{"Name":"Stefan Singyard","Location":"5 Ilene Court","Phone":"219-739-1694","Company":"Waters-Bednar"},
{"Name":"Boot Pouton","Location":"32344 Elmside Point","Phone":"684-779-0945","Company":"Abernathy-Nitzsche"},
{"Name":"Chelsey Renzini","Location":"3 Artisan Plaza","Phone":"818-968-4803","Company":"Bogan Inc"},
{"Name":"Marena Frenchum","Location":"7 Delaware Court","Phone":"650-974-5970","Company":"Rolfson-Lynch"},
{"Name":"Ludvig Sautter","Location":"6306 East Alley","Phone":"370-606-7535","Company":"VonRueden Inc"},
{"Name":"Ryon Nolan","Location":"16708 Express Alley","Phone":"866-186-5355","Company":"Kuvalis LLC"},
{"Name":"Malissia Waliszek","Location":"75848 Wayridge Point","Phone":"575-680-0257","Company":"Kuhn-Rosenbaum"},
{"Name":"Germayne Grimmert","Location":"66 Cottonwood Hill","Phone":"269-140-2768","Company":"Parker Inc"},
{"Name":"Luelle Baudains","Location":"5 Kipling Road","Phone":"951-877-4148","Company":"Marks, Wilkinson and Schmitt"},
{"Name":"Sterne Conrard","Location":"918 American Ash Center","Phone":"932-655-5446","Company":"Swift, Littel and Mayer"},
{"Name":"Adrianna Laws","Location":"813 East Park","Phone":"361-706-4673","Company":"Carter, Kertzmann and Weimann"},
{"Name":"Rosita Webby","Location":"34 Messerschmidt Parkway","Phone":"927-262-0325","Company":"D'Amore Group"},
{"Name":"Rhianon Bedrosian","Location":"880 David Trail","Phone":"806-224-6725","Company":"Leffler and Sons"},
{"Name":"Lou Bahlmann","Location":"0340 Tennessee Trail","Phone":"151-962-1261","Company":"Cummings-Shields"},
{"Name":"Cthrine Cumberpatch","Location":"3 Sunbrook Trail","Phone":"676-189-2374","Company":"Bergnaum-Roob"},
{"Name":"Alphonso Gaitung","Location":"218 Grover Junction","Phone":"154-988-6194","Company":"Herman LLC"},
{"Name":"Asia Sigfrid","Location":"58296 Little Fleur Crossing","Phone":"551-392-7603","Company":"Price-Thiel"},
{"Name":"Daloris Lauga","Location":"25 New Castle Pass","Phone":"251-757-1281","Company":"Kihn-Berge"},
{"Name":"Germana Greatreax","Location":"6360 Myrtle Center","Phone":"920-202-8979","Company":"Reilly LLC"},
{"Name":"Karola Harriman","Location":"17 Eastlawn Court","Phone":"519-577-2419","Company":"Gusikowski LLC"},
{"Name":"Winny Domingues","Location":"3 Comanche Alley","Phone":"451-177-0451","Company":"O'Kon, O'Hara and Farrell"},
{"Name":"Henrieta Frigot","Location":"055 Randy Way","Phone":"589-435-2357","Company":"Wehner-Altenwerth"},
{"Name":"Gordie Heisler","Location":"474 Esker Lane","Phone":"853-627-9506","Company":"Hoppe Group"},
{"Name":"Sandor Haslen","Location":"03 Sullivan Junction","Phone":"551-701-7937","Company":"Romaguera, Deckow and Fadel"},
{"Name":"Violette Longcaster","Location":"566 Katie Alley","Phone":"465-287-3902","Company":"Sauer, Langworth and Okuneva"},
{"Name":"Cherye Tinsey","Location":"46 Fairfield Plaza","Phone":"943-268-0037","Company":"Breitenberg Group"},
{"Name":"Piper Ledur","Location":"86339 Lakewood Gardens Alley","Phone":"143-616-0541","Company":"Sporer Group"},
{"Name":"Warde Baddam","Location":"7 Vera Way","Phone":"695-994-9151","Company":"Kessler-Shanahan"},
{"Name":"Ker Stych","Location":"4 Warner Trail","Phone":"201-729-5139","Company":"Erdman-Larson"},
{"Name":"Gary Jermy","Location":"6784 Lien Place","Phone":"613-433-7212","Company":"Koch Group"},
{"Name":"Darelle Avesque","Location":"43 Loomis Drive","Phone":"513-193-1120","Company":"Emard-Kiehn"},
{"Name":"Adriaens Dominguez","Location":"41 Prairie Rose Way","Phone":"506-733-0330","Company":"Wunsch Group"},
{"Name":"Guilbert Olenov","Location":"2302 Jackson Trail","Phone":"894-626-3515","Company":"Leannon, Wolf and Schumm"},
{"Name":"Eadie Fawlkes","Location":"6695 Cottonwood Avenue","Phone":"226-225-1671","Company":"Grant-Runolfsdottir"},
{"Name":"Morganica Tessington","Location":"71 Green Terrace","Phone":"818-553-6187","Company":"Wiegand, Monahan and Stark"},
{"Name":"Beltran Mattheus","Location":"80 Ridgeview Alley","Phone":"223-790-5809","Company":"Mraz Inc"},
{"Name":"Paolina Kemston","Location":"34234 Anhalt Center","Phone":"314-377-6075","Company":"Corwin, Graham and Tremblay"},
{"Name":"Nerti Schwant","Location":"970 Canary Park","Phone":"719-812-9255","Company":"Goyette, Mills and O'Reilly"},
{"Name":"Sheppard Angear","Location":"4587 Mandrake Lane","Phone":"536-497-9457","Company":"Conn-Hoeger"},
{"Name":"Del Rigden","Location":"7901 Artisan Parkway","Phone":"756-752-8343","Company":"Pacocha-Mosciski"},
{"Name":"Chelsie Banes","Location":"930 Magdeline Court","Phone":"978-226-6462","Company":"Tromp, Runolfsdottir and Zieme"},
{"Name":"Penelopa Ferroli","Location":"4225 Green Drive","Phone":"959-169-3728","Company":"Emard Group"},
{"Name":"Randolph Asmus","Location":"0 Fuller Parkway","Phone":"427-202-5849","Company":"Hirthe, Nitzsche and Veum"},
{"Name":"Dame Gooday","Location":"950 Hauk Parkway","Phone":"707-371-5249","Company":"Langosh-Homenick"},
{"Name":"Carleton Dawidowsky","Location":"1 Stone Corner Way","Phone":"133-889-2412","Company":"Collier, Little and Gerlach"},
{"Name":"Hollyanne Denne","Location":"90 Shasta Lane","Phone":"468-315-3085","Company":"Leannon-Parker"},
{"Name":"Richart Shiel","Location":"71196 Eggendart Avenue","Phone":"716-593-0695","Company":"Sanford, Langworth and Keebler"},
{"Name":"Kay McCullum","Location":"0101 Anhalt Junction","Phone":"431-985-7039","Company":"Towne Group"},
{"Name":"Dulcia Sellars","Location":"4 Butternut Crossing","Phone":"104-900-6388","Company":"Hartmann-King"},
{"Name":"Alistair MacAlroy","Location":"5485 Sommers Plaza","Phone":"351-140-2741","Company":"Schuppe, Huel and Stamm"},
{"Name":"Amalie Lushey","Location":"4239 Prairieview Hill","Phone":"325-809-4354","Company":"Osinski, Hagenes and Jacobi"},
{"Name":"Jenica Conroy","Location":"05 Macpherson Drive","Phone":"898-379-9951","Company":"Little and Sons"},
{"Name":"Raff Paternoster","Location":"651 Beilfuss Circle","Phone":"341-359-5732","Company":"Homenick, Schultz and Robel"},
{"Name":"Neda MacFadden","Location":"72 Evergreen Circle","Phone":"343-313-2607","Company":"Dare, Considine and Emard"},
{"Name":"Riobard Girod","Location":"95 Karstens Alley","Phone":"916-191-3103","Company":"Kovacek, Kling and Friesen"},
{"Name":"Iolanthe Hargreave","Location":"2373 Del Mar Street","Phone":"433-349-3615","Company":"Wunsch-Reichert"},
{"Name":"Jone Chastanet","Location":"27 Sherman Terrace","Phone":"129-843-9922","Company":"Gaylord, Bogan and Schneider"},
{"Name":"Nate Lindenbluth","Location":"52 Pawling Plaza","Phone":"620-460-5427","Company":"Wiza Inc"},
{"Name":"Ashton McCollum","Location":"90311 Loeprich Terrace","Phone":"561-541-6302","Company":"Lockman, Spencer and Hermann"},
{"Name":"Hadlee Syer","Location":"68 Logan Avenue","Phone":"920-990-4605","Company":"Sanford Inc"},
{"Name":"Bernhard Turneaux","Location":"33 Sunnyside Drive","Phone":"206-465-4357","Company":"Eichmann, Daniel and Tromp"},
{"Name":"Gerry Vaun","Location":"1715 Weeping Birch Lane","Phone":"902-914-4268","Company":"Gulgowski, Miller and Conn"},
{"Name":"Alexa Estick","Location":"26 Esch Street","Phone":"782-573-3243","Company":"Yundt, Stiedemann and Bernhard"},
{"Name":"Iver Scollard","Location":"6 Sunfield Circle","Phone":"591-341-9937","Company":"Treutel-Howe"},
{"Name":"Corrine Gadsdon","Location":"93 Union Center","Phone":"668-276-6557","Company":"Anderson, Smith and Romaguera"},
{"Name":"Pauli Ponting","Location":"25101 Veith Park","Phone":"927-596-3655","Company":"Koss, Buckridge and Reichert"},
{"Name":"Jeanelle Griffitt","Location":"978 Myrtle Trail","Phone":"454-638-4632","Company":"Skiles-Schultz"},
{"Name":"Raviv Doolan","Location":"92 Buhler Center","Phone":"195-506-6198","Company":"Balistreri-Mohr"},
{"Name":"Sarina Ozelton","Location":"33 Hauk Terrace","Phone":"689-955-7675","Company":"Baumbach, Schamberger and Kertzmann"},
{"Name":"Gwyneth Gladdifh","Location":"342 Heath Plaza","Phone":"193-656-6974","Company":"Renner Inc"},
{"Name":"Kendra Hansbury","Location":"1 Crescent Oaks Hill","Phone":"969-916-5745","Company":"Swift and Sons"},
{"Name":"Elana Hauxwell","Location":"8 Weeping Birch Alley","Phone":"198-828-3602","Company":"Gleichner-Bauch"},
{"Name":"Roma Tortoishell","Location":"41427 Truax Park","Phone":"239-564-9365","Company":"Schmidt, Carroll and Howe"},
{"Name":"Maiga Tacon","Location":"614 Mcbride Center","Phone":"863-587-3403","Company":"Corkery LLC"},
{"Name":"Ana Metrick","Location":"817 Glacier Hill Lane","Phone":"608-688-0738","Company":"Ullrich Group"},
{"Name":"Briant Blackaller","Location":"95531 Northview Trail","Phone":"567-508-2246","Company":"Berge, Kuphal and Wisoky"},
{"Name":"Thalia Beevens","Location":"9 Golf Course Parkway","Phone":"526-461-2353","Company":"Ortiz and Sons"},
{"Name":"Redford McGhee","Location":"4 Evergreen Pass","Phone":"701-688-6504","Company":"Schaden-Bartell"},
{"Name":"Tabby Widdison","Location":"169 Bluejay Avenue","Phone":"888-486-6884","Company":"Dietrich, Herzog and Davis"},
{"Name":"Alli Trimbey","Location":"912 Stuart Road","Phone":"304-628-5121","Company":"Veum, Schoen and Hodkiewicz"},
{"Name":"Corliss Ranshaw","Location":"01144 Stuart Park","Phone":"847-347-6570","Company":"Raynor Inc"},
{"Name":"Donnie Elliss","Location":"172 Mesta Way","Phone":"468-726-4317","Company":"Smitham-Lebsack"},
{"Name":"Earvin Bragginton","Location":"38 Little Fleur Terrace","Phone":"193-108-5120","Company":"Feil LLC"},
{"Name":"Deni Soutter","Location":"863 South Center","Phone":"426-161-2055","Company":"McCullough, Olson and Corkery"},
{"Name":"Luciano Ferrarese","Location":"33 Sachs Center","Phone":"117-551-1950","Company":"Collier-Lindgren"},
{"Name":"Ludovika Roelofsen","Location":"7193 Sycamore Circle","Phone":"158-877-6882","Company":"Heathcote, Jacobson and Schinner"},
{"Name":"Monte Vischi","Location":"72393 Londonderry Terrace","Phone":"206-838-1227","Company":"Kling, Rolfson and Bernhard"},
{"Name":"Hillyer Benmore","Location":"55996 Fairview Alley","Phone":"109-592-6656","Company":"Moen Group"},
{"Name":"Corabel Hale","Location":"6 Maryland Parkway","Phone":"488-698-0975","Company":"Hermiston-Wyman"},
{"Name":"Hyman Duinkerk","Location":"43907 Hoffman Alley","Phone":"597-129-5219","Company":"Lind LLC"},
{"Name":"Blakeley Rennox","Location":"6 Tony Parkway","Phone":"212-818-3610","Company":"Tromp, Gutmann and Ortiz"},
{"Name":"Anya Bevens","Location":"34013 Westend Way","Phone":"508-421-9549","Company":"Carroll-Hickle"},
{"Name":"Eimile Wooder","Location":"887 Westport Circle","Phone":"134-141-8657","Company":"Nader and Sons"},
{"Name":"Elisha Vanezis","Location":"33295 Donald Street","Phone":"743-735-1023","Company":"Stroman, Koepp and Moen"},
{"Name":"Sydel Mallock","Location":"674 Bunker Hill Plaza","Phone":"520-396-2594","Company":"Beer, Ziemann and Donnelly"},
{"Name":"Rich Eastbrook","Location":"980 West Road","Phone":"219-255-6277","Company":"Huel-Aufderhar"},
{"Name":"Keelby Gorthy","Location":"5 Talisman Road","Phone":"144-611-1103","Company":"Zulauf Group"},
{"Name":"Kurt Passie","Location":"01 Coolidge Hill","Phone":"617-979-0432","Company":"Nader-Reilly"},
{"Name":"Joyann Dickerson","Location":"41384 Corben Circle","Phone":"161-270-0721","Company":"King, Carroll and Bruen"},
{"Name":"Charmine Piet","Location":"08677 Springview Court","Phone":"689-591-7893","Company":"Bode-Turner"},
{"Name":"Camala Heinrici","Location":"8864 4th Hill","Phone":"765-654-3553","Company":"Wehner, Stark and Murray"},
{"Name":"Libby MacArthur","Location":"58423 Artisan Alley","Phone":"357-430-0920","Company":"Brekke, Trantow and Barrows"},
{"Name":"Dehlia Bettinson","Location":"6 Cambridge Hill","Phone":"153-579-0263","Company":"Wisoky-Fisher"},
{"Name":"Avivah Shapland","Location":"2 Harper Alley","Phone":"835-770-4978","Company":"Effertz, Towne and Reichert"},
{"Name":"Dillon Raynes","Location":"49065 Holmberg Street","Phone":"978-419-6201","Company":"Shanahan-Lockman"},
{"Name":"Roby D'orsay","Location":"211 Crest Line Road","Phone":"785-865-6480","Company":"Kautzer and Sons"},
{"Name":"Meg Benettolo","Location":"6249 Drewry Lane","Phone":"910-727-1841","Company":"Pfannerstill, Romaguera and Metz"},
{"Name":"Nestor Waddie","Location":"0 Scott Avenue","Phone":"563-593-0338","Company":"Shanahan Inc"},
{"Name":"Ddene Consterdine","Location":"2 Oakridge Drive","Phone":"669-594-1966","Company":"King-Reilly"},
{"Name":"Mersey Vinau","Location":"5 Westerfield Trail","Phone":"386-994-2511","Company":"Mitchell, Rau and Kuvalis"},
{"Name":"Brose Legerwood","Location":"96993 Bellgrove Pass","Phone":"121-199-2944","Company":"Labadie Group"},
{"Name":"Brana McNickle","Location":"57074 Forster Junction","Phone":"281-917-8954","Company":"Lemke, Gutkowski and Cassin"},
{"Name":"Koo Togwell","Location":"9035 Manufacturers Alley","Phone":"240-973-1098","Company":"Harvey-Emard"},
{"Name":"Elsbeth Rickert","Location":"2 Namekagon Street","Phone":"266-671-5881","Company":"Fahey Inc"},
{"Name":"Freddi Yeardsley","Location":"02186 Warner Place","Phone":"645-909-6065","Company":"Reichel-Tillman"},
{"Name":"Rockie Nafzger","Location":"1 Hintze Terrace","Phone":"742-796-4342","Company":"Wilderman LLC"},
{"Name":"Martyn Marskell","Location":"6944 Eagan Pass","Phone":"272-181-9248","Company":"Beer, Runte and Kohler"},
{"Name":"Lombard Hurn","Location":"038 Golf View Road","Phone":"463-736-3661","Company":"Marquardt, Ryan and Reilly"},
{"Name":"Evania Ramel","Location":"36 Bartillon Drive","Phone":"462-322-6878","Company":"Kozey-Reichel"},
{"Name":"Orin Fettis","Location":"4088 Rockefeller Center","Phone":"667-907-9699","Company":"Abernathy, Gislason and Feil"},
{"Name":"Gilligan Doggart","Location":"4 Dunning Lane","Phone":"328-438-5038","Company":"Jones LLC"},
{"Name":"Joachim Janney","Location":"37292 Manley Junction","Phone":"382-433-6251","Company":"Kunze-Welch"},
{"Name":"Garfield Rankcom","Location":"6679 Jenna Alley","Phone":"416-276-4045","Company":"Smith, Stamm and Buckridge"},
{"Name":"Ulberto Lowry","Location":"559 Mendota Street","Phone":"102-166-6026","Company":"Mann, McClure and Sipes"},
{"Name":"Chaunce Footer","Location":"8 Elmside Crossing","Phone":"905-184-0808","Company":"Bechtelar Group"},
{"Name":"Devland Derkes","Location":"504 Lawn Alley","Phone":"623-932-3802","Company":"Predovic-Schiller"},
{"Name":"Carlin Osborne","Location":"7 Charing Cross Pass","Phone":"525-235-8137","Company":"Williamson, Nitzsche and Bernhard"},
{"Name":"Kalinda Mogie","Location":"161 Sunnyside Way","Phone":"369-949-8089","Company":"Corkery LLC"},
{"Name":"Bernette Lavallin","Location":"62572 Lakewood Gardens Pass","Phone":"678-176-3300","Company":"Cartwright-Rutherford"},
{"Name":"Sarette Cowden","Location":"352 Havey Terrace","Phone":"369-218-8125","Company":"Von-Langosh"},
{"Name":"Joby Welband","Location":"8 Ronald Regan Way","Phone":"308-659-8890","Company":"Kertzmann, Lockman and Spencer"},
{"Name":"Kevin Bouttell","Location":"59 Derek Way","Phone":"531-689-3947","Company":"Cormier, Marquardt and Keeling"},
{"Name":"Madella Martinetto","Location":"2 Huxley Pass","Phone":"845-826-6033","Company":"Armstrong-Hamill"},
{"Name":"Nat Dodgshun","Location":"3 Donald Terrace","Phone":"779-916-7613","Company":"Marvin-Bruen"},
{"Name":"Gaylene Pinckney","Location":"4165 5th Trail","Phone":"379-794-2052","Company":"Cummings and Sons"},
{"Name":"Sara-ann Patinkin","Location":"3473 Helena Parkway","Phone":"317-697-8478","Company":"Leffler-Daugherty"},
{"Name":"Joly Molesworth","Location":"22301 Dayton Court","Phone":"954-819-6970","Company":"MacGyver-Kerluke"},
{"Name":"Cameron Douglas","Location":"9 Red Cloud Crossing","Phone":"794-703-7077","Company":"Sauer-Bayer"},
{"Name":"Aylmar Slade","Location":"77648 Karstens Way","Phone":"835-592-1889","Company":"Bechtelar LLC"},
{"Name":"Candy Thurnham","Location":"535 Arizona Way","Phone":"763-269-4837","Company":"McLaughlin Group"},
{"Name":"Fawne Kitchen","Location":"2 Hanson Crossing","Phone":"328-989-5804","Company":"Lueilwitz-Goodwin"},
{"Name":"Marlee Hubbuck","Location":"8 Main Place","Phone":"281-582-7287","Company":"Ledner, Schmidt and Quitzon"},
{"Name":"Trever Lux","Location":"739 Derek Hill","Phone":"645-678-4637","Company":"Wintheiser, Kuphal and Hayes"},
{"Name":"Christabella Greensitt","Location":"10 Morning Court","Phone":"278-481-0162","Company":"Gottlieb, Cummings and Dicki"},
{"Name":"Sammy Bartosik","Location":"82 Kings Terrace","Phone":"762-543-7644","Company":"Hermann-Keebler"},
{"Name":"Lara De Leek","Location":"2 American Road","Phone":"286-436-7027","Company":"Predovic-Franecki"},
{"Name":"Adena Brobeck","Location":"98342 Bobwhite Trail","Phone":"830-904-0499","Company":"Mills and Sons"},
{"Name":"Josie Parkinson","Location":"7040 Harper Pass","Phone":"360-622-3570","Company":"Rempel-Kertzmann"},
{"Name":"Lilias Downe","Location":"3 Coolidge Drive","Phone":"480-685-0016","Company":"Walter-Satterfield"},
{"Name":"Addi Tong","Location":"203 Charing Cross Parkway","Phone":"446-863-5583","Company":"Goldner, DuBuque and Sipes"},
{"Name":"Roselia Worvill","Location":"30128 Ridgeway Avenue","Phone":"771-907-6627","Company":"O'Connell Inc"},
{"Name":"Valentijn Littlewood","Location":"59 Helena Pass","Phone":"743-571-8367","Company":"Hoeger-Stamm"},
{"Name":"Dita Gentzsch","Location":"25 Scofield Terrace","Phone":"975-231-7653","Company":"Moen-Rutherford"},
{"Name":"Susie Ghion","Location":"4 Loeprich Terrace","Phone":"792-411-7677","Company":"Murazik LLC"},
{"Name":"Abagail Mc Ilwrick","Location":"50248 Banding Trail","Phone":"524-228-9077","Company":"McKenzie-Padberg"},
{"Name":"Teador Patrie","Location":"310 Old Gate Alley","Phone":"857-484-3647","Company":"Streich-Baumbach"},
{"Name":"Emeline Donovan","Location":"1013 Twin Pines Circle","Phone":"842-808-3790","Company":"Kutch, Spencer and Wuckert"},
{"Name":"Rosemaria Dalgety","Location":"24 Ridge Oak Parkway","Phone":"700-468-2934","Company":"Larkin-Hand"},
{"Name":"Muffin McLauchlin","Location":"7228 Hoard Pass","Phone":"162-462-9437","Company":"Goyette-Mayert"},
{"Name":"Tobie Shillabeare","Location":"12826 Fair Oaks Alley","Phone":"930-576-9855","Company":"Corkery, Weimann and Towne"},
{"Name":"Myrilla Borrowman","Location":"1573 Claremont Plaza","Phone":"647-835-7716","Company":"Mosciski-Larkin"},
{"Name":"Barty O'Mara","Location":"37 South Alley","Phone":"750-154-7647","Company":"Hyatt Group"},
{"Name":"Eddie Roizn","Location":"5347 Center Place","Phone":"778-784-2074","Company":"Torp-Rowe"},
{"Name":"Allyce Becconsall","Location":"57078 Warrior Point","Phone":"479-599-3728","Company":"Runolfsdottir Inc"},
{"Name":"Arin Ludye","Location":"9 Larry Park","Phone":"270-241-0161","Company":"Terry-Roob"},
{"Name":"Lothaire Greader","Location":"438 Sherman Center","Phone":"229-683-5581","Company":"Kuhn Inc"},
{"Name":"Abbey Legion","Location":"85 Wayridge Drive","Phone":"606-306-3469","Company":"Ward, Balistreri and Beatty"},
{"Name":"Cecilius Drinkel","Location":"586 Bowman Park","Phone":"147-610-6540","Company":"Feeney-Simonis"},
{"Name":"Saw Bahl","Location":"02009 Anthes Way","Phone":"132-994-1134","Company":"Corkery-Ondricka"},
{"Name":"Baird Malser","Location":"710 Arrowood Parkway","Phone":"688-889-9987","Company":"Casper Inc"},
{"Name":"Richmound Bruin","Location":"9258 Arkansas Trail","Phone":"503-268-6196","Company":"Gutkowski, Wuckert and Connelly"},
{"Name":"Eadmund Tourner","Location":"840 Kennedy Place","Phone":"704-951-8397","Company":"Frami and Sons"},
{"Name":"Salli Pettiford","Location":"9 Troy Place","Phone":"636-748-7990","Company":"Green, Spinka and Lang"},
{"Name":"Linda Sey","Location":"644 Hoffman Lane","Phone":"975-794-2963","Company":"Zemlak, Leannon and Wiegand"},
{"Name":"Roxi Waldera","Location":"791 Hooker Center","Phone":"647-281-7955","Company":"Weissnat LLC"},
{"Name":"Nels Rougier","Location":"8561 Sundown Alley","Phone":"978-554-1098","Company":"Ullrich, Littel and Spencer"},
{"Name":"Gwennie Johnes","Location":"92 Washington Point","Phone":"526-137-0417","Company":"Anderson, Ward and Bednar"},
{"Name":"Correy MacDowal","Location":"7300 Kim Way","Phone":"199-245-4992","Company":"Leffler-Larson"},
{"Name":"Niccolo Fendley","Location":"09 Grayhawk Drive","Phone":"644-112-9071","Company":"Bahringer, Bins and Ankunding"},
{"Name":"Leela Malthouse","Location":"0 Marquette Hill","Phone":"659-191-2390","Company":"Hackett-Morissette"},
{"Name":"Ab Cheine","Location":"9 Clemons Crossing","Phone":"429-212-7423","Company":"Beier, Dietrich and Pouros"},
{"Name":"Melonie Siddele","Location":"51 Blaine Plaza","Phone":"322-629-4845","Company":"Reinger-MacGyver"},
{"Name":"Hall Marlow","Location":"60 Logan Alley","Phone":"997-866-1183","Company":"Smith Group"},
{"Name":"Kingsly Scotter","Location":"665 Derek Way","Phone":"299-607-4033","Company":"Langworth, Kozey and Frami"},
{"Name":"Remus Sleany","Location":"946 Swallow Avenue","Phone":"823-429-3813","Company":"Kshlerin LLC"},
{"Name":"Valry Scurrah","Location":"86323 Crescent Oaks Place","Phone":"707-605-1297","Company":"O'Conner Inc"},
{"Name":"Cecilia Pierucci","Location":"361 Springs Circle","Phone":"928-575-8088","Company":"Erdman-McClure"},
{"Name":"Sandy Ximenez","Location":"09 Glacier Hill Center","Phone":"362-734-9235","Company":"Kutch and Sons"},
{"Name":"Udall Piggrem","Location":"942 Northfield Way","Phone":"733-322-9306","Company":"Brakus Group"},
{"Name":"Jeremy Bellin","Location":"860 Menomonie Terrace","Phone":"140-601-0502","Company":"Witting, Bernier and Bergnaum"},
{"Name":"Josy Speddin","Location":"10738 Nancy Parkway","Phone":"556-325-7852","Company":"Hansen, Crooks and Bogisich"},
{"Name":"Othella Eite","Location":"0018 Norway Maple Crossing","Phone":"262-822-9379","Company":"Trantow-Lebsack"},
{"Name":"Tildy McKeowon","Location":"56 Little Fleur Pass","Phone":"585-783-8509","Company":"Quitzon Inc"},
{"Name":"Frans Carwithim","Location":"1019 Lakewood Drive","Phone":"709-906-7794","Company":"Stiedemann, Kozey and Kreiger"},
{"Name":"Noreen Pound","Location":"2890 Saint Paul Place","Phone":"367-936-8313","Company":"Orn Inc"},
{"Name":"Domenic Feltoe","Location":"09 Little Fleur Road","Phone":"406-851-0733","Company":"Sanford and Sons"},
{"Name":"Clotilda Perott","Location":"206 Bowman Pass","Phone":"847-369-5139","Company":"Hickle, Vandervort and Emmerich"},
{"Name":"Worden Asals","Location":"55 Evergreen Pass","Phone":"176-180-3288","Company":"Toy, Kirlin and Durgan"},
{"Name":"Pandora Clymo","Location":"0320 Clyde Gallagher Alley","Phone":"370-595-3888","Company":"Ebert LLC"},
{"Name":"Doloritas Diaper","Location":"20 Duke Point","Phone":"158-235-1689","Company":"Maggio, Bednar and Hagenes"},
{"Name":"Shep Skirlin","Location":"63 Nevada Hill","Phone":"896-783-3558","Company":"Bernier, Pollich and Miller"},
{"Name":"Nerissa Hair","Location":"58504 Veith Circle","Phone":"705-550-4315","Company":"Kub Inc"},
{"Name":"Dorette Laurenceau","Location":"1 Clove Center","Phone":"143-633-1045","Company":"Boyle-Streich"},
{"Name":"Felic Arrington","Location":"35651 Lerdahl Parkway","Phone":"413-473-6958","Company":"Kuhic Inc"},
{"Name":"Hetty Klulisek","Location":"3551 Loftsgordon Park","Phone":"761-857-9995","Company":"Lynch, Wehner and Beatty"},
{"Name":"Pasquale Coulthard","Location":"1 Paget Place","Phone":"795-325-3419","Company":"Reynolds LLC"},
{"Name":"Tedman Clampett","Location":"6 Lakewood Gardens Park","Phone":"508-297-0195","Company":"Koelpin-Moen"},
{"Name":"Mario Doe","Location":"79 Dixon Place","Phone":"551-396-4062","Company":"Upton-Romaguera"},
{"Name":"Gordan Rumbold","Location":"5472 Eastwood Circle","Phone":"351-177-2299","Company":"Schuppe-Feeney"},
{"Name":"Zacharias Banister","Location":"4 Chive Pass","Phone":"314-221-1241","Company":"Toy, Steuber and Mitchell"},
{"Name":"Byrle Skoate","Location":"85 Superior Trail","Phone":"247-288-8024","Company":"Waters-Jenkins"},
{"Name":"Vanna Barras","Location":"004 Glendale Junction","Phone":"573-674-5905","Company":"Bradtke, Morissette and Hammes"},
{"Name":"Winona Jewiss","Location":"6 Stephen Trail","Phone":"590-446-0716","Company":"Batz, Lebsack and Hammes"},
{"Name":"Nada Lenham","Location":"64263 Washington Hill","Phone":"180-360-0891","Company":"Price-Keeling"},
{"Name":"Bruis Alderwick","Location":"06095 Little Fleur Pass","Phone":"990-954-8657","Company":"Champlin-Bogisich"},
{"Name":"Vin Birks","Location":"93 South Parkway","Phone":"342-631-5503","Company":"Hoeger Group"},
{"Name":"Raddie Aggio","Location":"4 Toban Pass","Phone":"571-598-8775","Company":"Lang, Smitham and Hudson"},
{"Name":"Jakie Barczynski","Location":"31982 American Pass","Phone":"605-276-4742","Company":"Pfeffer and Sons"},
{"Name":"Nichole Weald","Location":"06248 Norway Maple Court","Phone":"734-671-2243","Company":"Walker, Bartell and Batz"},
{"Name":"Theodora McDermid","Location":"92 Eagle Crest Street","Phone":"264-284-2613","Company":"Rutherford, Mertz and Kertzmann"},
{"Name":"Evania Million","Location":"18 Moland Hill","Phone":"202-965-3320","Company":"Douglas, Mertz and Keebler"},
{"Name":"Kai Hawken","Location":"41380 Anhalt Lane","Phone":"239-905-1873","Company":"Koepp LLC"},
{"Name":"Inness Cove","Location":"28 Elgar Point","Phone":"401-296-3064","Company":"Leuschke-Heidenreich"},
{"Name":"Wayne Wallice","Location":"97775 Nobel Center","Phone":"646-408-6237","Company":"Moore Inc"},
{"Name":"Morse Hayles","Location":"8076 Manley Drive","Phone":"567-995-5666","Company":"Haag Group"},
{"Name":"Nichols Ogelsby","Location":"5 Ridge Oak Terrace","Phone":"196-650-6247","Company":"Connelly and Sons"},
{"Name":"Madison Held","Location":"4 Merry Park","Phone":"252-431-2308","Company":"Kreiger-Daniel"},
{"Name":"Fred Klazenga","Location":"140 Utah Hill","Phone":"887-718-7723","Company":"Kuhlman, Blanda and Halvorson"},
{"Name":"Julietta Le-Good","Location":"9943 Lindbergh Pass","Phone":"983-715-0089","Company":"Kilback, Flatley and Wilderman"},
{"Name":"Timmy Mansion","Location":"8 Brentwood Plaza","Phone":"651-472-6196","Company":"Walsh and Sons"},
{"Name":"Tonya Freckingham","Location":"99389 Mendota Terrace","Phone":"673-986-0691","Company":"Hodkiewicz and Sons"},
{"Name":"Germaine Trownson","Location":"7 Forster Circle","Phone":"111-711-9521","Company":"Schmidt Inc"},
{"Name":"Berna Noraway","Location":"6068 Rowland Way","Phone":"975-217-7392","Company":"Brekke-McDermott"},
{"Name":"Gill Coppins","Location":"8682 Montana Circle","Phone":"195-313-3410","Company":"Harris Inc"},
{"Name":"Sebastien Dorning","Location":"66 Johnson Park","Phone":"347-169-5142","Company":"Johnston-Kreiger"},
{"Name":"Virginie Tippett","Location":"060 Blaine Center","Phone":"862-716-7702","Company":"Friesen Group"},
{"Name":"Margarethe Mathison","Location":"4103 Stephen Pass","Phone":"633-315-4600","Company":"Powlowski Group"},
{"Name":"Tamara Van Haeften","Location":"77984 Hauk Way","Phone":"962-703-5574","Company":"Anderson, Hilpert and Stokes"},
{"Name":"Robyn Ellerington","Location":"377 Esch Trail","Phone":"743-667-5671","Company":"Huels Inc"},
{"Name":"Tonye Leonida","Location":"46529 Bellgrove Place","Phone":"498-268-1293","Company":"Lesch, Mann and Buckridge"},
{"Name":"Tanya Bakesef","Location":"0 Canary Road","Phone":"569-237-0446","Company":"Ebert LLC"},
{"Name":"Alex Appleford","Location":"3828 Warner Alley","Phone":"643-275-0812","Company":"Veum LLC"},
{"Name":"Valida Grebbin","Location":"92 Transport Circle","Phone":"254-182-7326","Company":"Olson Group"},
{"Name":"Oliy Nudds","Location":"142 Heffernan Crossing","Phone":"414-772-0506","Company":"Ratke, Simonis and Dickens"},
{"Name":"Wilmar McAlindon","Location":"0051 Melby Pass","Phone":"933-790-4926","Company":"Morar, Fahey and Sanford"},
{"Name":"Katy Bachellier","Location":"58 Shopko Avenue","Phone":"811-124-7046","Company":"Dooley-Kuhn"},
{"Name":"Melly Galliard","Location":"32 Sugar Point","Phone":"974-838-5958","Company":"Bartell and Sons"},
{"Name":"Danell McCracken","Location":"852 Maple Wood Circle","Phone":"681-602-9200","Company":"Shanahan, Towne and Harris"},
{"Name":"Stacee Lecount","Location":"339 Schiller Point","Phone":"495-210-6739","Company":"Hahn Inc"},
{"Name":"Mikkel Bartlosz","Location":"0 Heffernan Hill","Phone":"357-163-5860","Company":"Zieme-Green"},
{"Name":"Adair Sommerville","Location":"2332 Lien Park","Phone":"762-328-4909","Company":"Thompson Inc"},
{"Name":"Anette O'Donohue","Location":"6762 Kenwood Plaza","Phone":"458-564-6425","Company":"Brakus, Harvey and Boehm"},
{"Name":"Filide Andreotti","Location":"1882 Delladonna Lane","Phone":"168-490-4339","Company":"Shanahan, Steuber and Homenick"},
{"Name":"Doro Wilton","Location":"54 Portage Parkway","Phone":"640-283-8460","Company":"Daniel, Murazik and Corwin"},
{"Name":"Jess Cockburn","Location":"394 Bashford Avenue","Phone":"435-741-7566","Company":"Steuber LLC"},
{"Name":"Truman Skelly","Location":"5859 Montana Trail","Phone":"849-293-9906","Company":"Kihn, Sipes and Shields"},
{"Name":"Crysta Antoniou","Location":"718 Scofield Park","Phone":"863-610-2166","Company":"Mertz, Wolff and Gutkowski"},
{"Name":"Wait Barmadier","Location":"6 Huxley Circle","Phone":"917-559-9298","Company":"Macejkovic Group"},
{"Name":"Linda De Witt","Location":"61 Ryan Terrace","Phone":"177-607-9247","Company":"Dietrich-Monahan"},
{"Name":"Boone Surgey","Location":"01 Mayer Court","Phone":"347-722-4341","Company":"Carroll-Rempel"},
{"Name":"Hanan Magill","Location":"5811 Schurz Street","Phone":"936-979-6312","Company":"Ferry, Ankunding and Beahan"},
{"Name":"Jo Trye","Location":"60 Eastwood Avenue","Phone":"187-914-9192","Company":"Parisian-Abernathy"},
{"Name":"Esra Rattrie","Location":"99852 Hollow Ridge Street","Phone":"136-200-2016","Company":"Stroman LLC"},
{"Name":"Corliss Tattersall","Location":"3 Becker Drive","Phone":"720-752-7270","Company":"Willms Inc"},
{"Name":"Zitella Bugdall","Location":"86886 Clarendon Street","Phone":"205-305-8323","Company":"Collins, Huel and Mayer"},
{"Name":"Nelia Hoyt","Location":"65363 Cambridge Point","Phone":"939-853-9838","Company":"Collier, Jakubowski and Bogisich"},
{"Name":"Fremont Casterot","Location":"3915 Anthes Pass","Phone":"154-799-4903","Company":"Armstrong, Heidenreich and Lind"},
{"Name":"Marlane Block","Location":"73 Lighthouse Bay Street","Phone":"653-655-0336","Company":"Johnston-Bruen"},
{"Name":"Marilin Kochel","Location":"39 Victoria Point","Phone":"737-950-9201","Company":"Satterfield, Kerluke and Schinner"},
{"Name":"Elliott Lassell","Location":"3 Memorial Lane","Phone":"441-611-1197","Company":"Runolfsson, Bins and Bauch"},
{"Name":"Carolee Antat","Location":"05 Claremont Court","Phone":"410-356-4686","Company":"Kautzer, Eichmann and Kuhn"},
{"Name":"Jorge Cusiter","Location":"8 Hagan Way","Phone":"652-434-6441","Company":"Heathcote, Lesch and Rolfson"},
{"Name":"Nada Yockley","Location":"2 Muir Terrace","Phone":"320-638-6016","Company":"Carter Inc"},
{"Name":"Abigale Challiner","Location":"6773 Schurz Junction","Phone":"922-707-0100","Company":"Macejkovic-Bode"},
{"Name":"Alla Lambillion","Location":"8762 Memorial Road","Phone":"143-277-2597","Company":"Nicolas and Sons"},
{"Name":"Wendell Iliff","Location":"960 Grayhawk Crossing","Phone":"106-464-3599","Company":"Keeling Group"},
{"Name":"Forster Kirkup","Location":"9265 High Crossing Way","Phone":"336-448-8287","Company":"Adams LLC"},
{"Name":"Haleigh Jancey","Location":"61 Chinook Hill","Phone":"297-170-7152","Company":"Lind, Kozey and Lind"},
{"Name":"Tammy Bowle","Location":"7 Scoville Terrace","Phone":"408-964-4044","Company":"Ebert-Bahringer"},
{"Name":"Silvan Ioselev","Location":"87 Eagle Crest Crossing","Phone":"886-410-5059","Company":"Cole-Shields"},
{"Name":"Nariko Gaskins","Location":"22 Katie Place","Phone":"169-708-0296","Company":"Pollich-Stark"},
{"Name":"Catharine Sutehall","Location":"9161 Merrick Park","Phone":"976-280-0151","Company":"Langosh, Rutherford and Kuhic"},
{"Name":"Cornela Phippard","Location":"22 Canary Road","Phone":"394-452-6181","Company":"Jenkins LLC"},
{"Name":"Terrill Swinden","Location":"9 Milwaukee Road","Phone":"272-153-5412","Company":"Runolfsson and Sons"},
{"Name":"Moshe Mollnar","Location":"9 Iowa Alley","Phone":"542-167-9488","Company":"Wyman and Sons"},
{"Name":"Charin Kardos-Stowe","Location":"237 Dapin Plaza","Phone":"178-229-9966","Company":"Bernier-Cummings"},
{"Name":"Pascal Broschek","Location":"1 Merrick Hill","Phone":"342-511-4009","Company":"Eichmann Group"},
{"Name":"Brittaney Rowney","Location":"0 Hanson Junction","Phone":"946-284-4528","Company":"Olson, Wilderman and Hills"},
{"Name":"Tam Izacenko","Location":"7 Veith Court","Phone":"590-917-1729","Company":"Wiegand, Erdman and Barrows"},
{"Name":"Alexa Holcroft","Location":"461 Blue Bill Park Trail","Phone":"536-761-0469","Company":"Reynolds Inc"},
{"Name":"Tybi Crebott","Location":"00 Swallow Way","Phone":"228-592-7447","Company":"Cruickshank-Gleason"},
{"Name":"Korey Brosetti","Location":"541 Vera Place","Phone":"807-399-3542","Company":"Monahan, Koelpin and Shields"},
{"Name":"Elmira Phillipson","Location":"3 Oakridge Trail","Phone":"347-367-5876","Company":"Hermann-Bednar"},
{"Name":"Gabe Piggen","Location":"838 Roxbury Plaza","Phone":"164-247-6968","Company":"Klein, Quigley and Cassin"},
{"Name":"Gery Finder","Location":"26181 Menomonie Court","Phone":"345-384-7606","Company":"Leffler-Prohaska"},
{"Name":"Kaleena Cufflin","Location":"39 Victoria Hill","Phone":"664-634-1979","Company":"Rippin Group"},
{"Name":"Elberta Escala","Location":"84269 Bay Court","Phone":"803-506-1998","Company":"Green, Ruecker and Bradtke"},
{"Name":"Harper Cutchey","Location":"7 Sherman Place","Phone":"326-404-0032","Company":"Hirthe-Ruecker"},
{"Name":"Alessandra Springell","Location":"86 Rowland Lane","Phone":"418-779-2488","Company":"Hagenes, Eichmann and Reynolds"},
{"Name":"Leda Le Batteur","Location":"15978 Corben Center","Phone":"671-253-1867","Company":"Crist-Kunze"},
{"Name":"Rheba Loutheane","Location":"4 Declaration Terrace","Phone":"769-687-2274","Company":"Larson LLC"},
{"Name":"Libbie Smylie","Location":"5 Kingsford Hill","Phone":"744-539-8355","Company":"Lemke, Trantow and Kling"},
{"Name":"Ingra Perin","Location":"2 Lotheville Lane","Phone":"712-713-8053","Company":"Huel LLC"},
{"Name":"Scott MacHoste","Location":"4 Roth Junction","Phone":"123-382-4388","Company":"Runolfsson-Schiller"},
{"Name":"Sibyl Beaument","Location":"54 Paget Terrace","Phone":"570-419-8010","Company":"White, Schumm and Mraz"},
{"Name":"Amelia Domsalla","Location":"43883 Tennessee Lane","Phone":"990-223-1949","Company":"Tromp-Barrows"},
{"Name":"Ricardo Briance","Location":"4555 Brentwood Plaza","Phone":"910-751-3933","Company":"Schroeder Group"},
{"Name":"Dyanne Pickthall","Location":"5 Acker Terrace","Phone":"902-989-6748","Company":"Schmeler, Stracke and Grady"},
{"Name":"Giulio Curragh","Location":"5694 Merrick Crossing","Phone":"826-890-8954","Company":"Hahn-Kunze"},
{"Name":"Shanda Bissett","Location":"136 Mallory Junction","Phone":"232-751-1316","Company":"Bogan-Pfannerstill"},
{"Name":"Prescott Hulse","Location":"56 Gina Way","Phone":"227-610-0709","Company":"Heaney, Williamson and Effertz"},
{"Name":"Malorie Windmill","Location":"05593 Acker Hill","Phone":"964-803-4888","Company":"Murray-Kirlin"},
{"Name":"Luella Stirton","Location":"28 Bowman Plaza","Phone":"980-756-8848","Company":"Glover-Feil"},
{"Name":"Augusta Burkitt","Location":"37771 Sheridan Trail","Phone":"721-365-4205","Company":"Mertz, Reynolds and Kuphal"},
{"Name":"Maryellen Gaine","Location":"585 North Parkway","Phone":"533-738-3252","Company":"Beer LLC"},
{"Name":"Alfonso Leyborne","Location":"3 Upham Road","Phone":"189-425-6965","Company":"Will, Zemlak and Reichert"},
{"Name":"Burlie Dymidowicz","Location":"161 Harbort Road","Phone":"105-982-1406","Company":"Douglas Inc"},
{"Name":"Inglis MacBey","Location":"54 Clemons Drive","Phone":"932-904-5533","Company":"Marquardt-Toy"},
{"Name":"Igor Dorset","Location":"5 Barby Terrace","Phone":"850-847-5248","Company":"Wiza Inc"},
{"Name":"Beverly Kegley","Location":"03 Dapin Plaza","Phone":"959-367-6030","Company":"Hilll, Conn and Pouros"},
{"Name":"Haslett Blouet","Location":"56452 Helena Junction","Phone":"580-639-0962","Company":"Price, Metz and Koss"},
{"Name":"Glenine Cockaday","Location":"81500 Independence Junction","Phone":"139-978-8476","Company":"Lindgren-Borer"},
{"Name":"Ody Medley","Location":"25209 Anhalt Court","Phone":"142-889-0415","Company":"Oberbrunner Group"},
{"Name":"Trey Siggers","Location":"46 Huxley Alley","Phone":"279-618-1961","Company":"Ullrich-Denesik"},
{"Name":"Charmain De la Eglise","Location":"7 Forest Run Street","Phone":"562-929-1018","Company":"Okuneva-Frami"},
{"Name":"Darrick Mantz","Location":"6117 Dapin Place","Phone":"267-515-7412","Company":"Morissette-Luettgen"},
{"Name":"Veriee Carreck","Location":"8 Harbort Lane","Phone":"573-358-5659","Company":"Little-Stoltenberg"},
{"Name":"Quinton Greenside","Location":"1007 Mallard Road","Phone":"826-112-8887","Company":"Bosco-Bechtelar"},
{"Name":"Victoria Dargavel","Location":"202 Rockefeller Junction","Phone":"120-899-1522","Company":"Weissnat-Hackett"},
{"Name":"Davine Jermey","Location":"6 American Ash Circle","Phone":"333-224-7705","Company":"Erdman, Fay and Hayes"},
{"Name":"Zaria Pundy","Location":"8 Lillian Junction","Phone":"802-951-4814","Company":"Denesik Group"},
{"Name":"Dorella Creamen","Location":"6 Sullivan Point","Phone":"364-766-7102","Company":"Shields-Brakus"},
{"Name":"Gerick Gloster","Location":"5148 Cordelia Pass","Phone":"643-958-5073","Company":"Lockman, Altenwerth and Herzog"},
{"Name":"Cross Medcalfe","Location":"3361 Fremont Alley","Phone":"258-594-4867","Company":"Walker, Spinka and Walsh"},
{"Name":"Esra Marchent","Location":"327 Becker Point","Phone":"316-475-3307","Company":"Murphy-Waelchi"},
{"Name":"Vladimir Bacchus","Location":"21 Mcbride Pass","Phone":"291-124-2138","Company":"Hoppe and Sons"},
{"Name":"Mirna Dome","Location":"2412 Clemons Avenue","Phone":"378-948-7452","Company":"Renner LLC"},
{"Name":"Art Vidgeon","Location":"5031 Hagan Street","Phone":"374-553-1201","Company":"Bergstrom-Herman"},
{"Name":"Vidovic Verity","Location":"016 Pearson Circle","Phone":"816-455-5048","Company":"Kris-Carroll"},
{"Name":"Archaimbaud Bowater","Location":"506 Lakewood Gardens Drive","Phone":"473-165-0351","Company":"Turner and Sons"},
{"Name":"Haven Geraldo","Location":"496 Shopko Plaza","Phone":"855-664-6804","Company":"Yost-Prosacco"},
{"Name":"Tiebold Tackley","Location":"818 Loomis Plaza","Phone":"570-136-9664","Company":"Mann Inc"},
{"Name":"Toddie Bortolotti","Location":"38 Warrior Way","Phone":"741-603-5763","Company":"Weber-Batz"},
{"Name":"Beilul Milsap","Location":"50700 Crest Line Hill","Phone":"261-871-3176","Company":"Yost-Lehner"},
{"Name":"Ilise Joontjes","Location":"29 Rusk Hill","Phone":"849-910-5412","Company":"McClure-Zboncak"},
{"Name":"Douglas Thorouggood","Location":"0608 Northwestern Pass","Phone":"659-815-7189","Company":"Trantow and Sons"},
{"Name":"Darsie Stratten","Location":"7 Menomonie Hill","Phone":"938-827-5098","Company":"Emard, Kertzmann and Koelpin"},
{"Name":"Shaylah Capps","Location":"3673 Starling Drive","Phone":"908-721-0466","Company":"Wintheiser-Donnelly"},
{"Name":"Gaye Pawlik","Location":"025 Blaine Pass","Phone":"361-914-2429","Company":"McCullough and Sons"},
{"Name":"Sarena Carme","Location":"65 New Castle Place","Phone":"290-299-3620","Company":"Heidenreich-Wisoky"},
{"Name":"Jude Dinnington","Location":"333 Blaine Alley","Phone":"457-668-3787","Company":"Nicolas, Schiller and Klein"},
{"Name":"Rogers Avo","Location":"93 Ridgeview Junction","Phone":"862-962-9951","Company":"Braun, O'Connell and Ledner"},
{"Name":"Luciana Wollard","Location":"900 Fairfield Junction","Phone":"271-930-9619","Company":"Klocko, Fisher and Braun"},
{"Name":"Lesly Churchouse","Location":"9 6th Crossing","Phone":"300-815-9055","Company":"Johns Inc"},
{"Name":"Lockwood Rens","Location":"15 Hansons Court","Phone":"302-756-7710","Company":"Borer Inc"},
{"Name":"Blaine Shepstone","Location":"7371 Lindbergh Street","Phone":"173-178-6583","Company":"Krajcik, Hessel and Goldner"},
{"Name":"Lindon Colleton","Location":"74578 Forest Run Plaza","Phone":"404-175-3010","Company":"Lynch LLC"},
{"Name":"Devlin Fuzzey","Location":"7 Eastlawn Terrace","Phone":"173-420-7944","Company":"Runolfsdottir Inc"},
{"Name":"Jaquith Faers","Location":"8 Oak Plaza","Phone":"468-613-2056","Company":"Waelchi-Ferry"},
{"Name":"Shermie Andreaccio","Location":"142 Amoth Court","Phone":"291-345-9235","Company":"Koss Inc"},
{"Name":"Cassaundra Vann","Location":"0628 Blackbird Park","Phone":"128-791-8606","Company":"Kemmer LLC"},
{"Name":"Winslow Cullum","Location":"67 Tennyson Hill","Phone":"221-300-7272","Company":"Strosin Inc"},
{"Name":"Bjorn Bockh","Location":"2 Lake View Trail","Phone":"746-554-7772","Company":"Kautzer-Anderson"},
{"Name":"Gwyneth Abadam","Location":"21994 Parkside Place","Phone":"821-637-5700","Company":"Langworth-Rau"},
{"Name":"Connor Day","Location":"99 Russell Hill","Phone":"873-790-7285","Company":"Collins Inc"},
{"Name":"Sorcha MacKonochie","Location":"07294 Buhler Road","Phone":"732-567-1503","Company":"Connelly, Torphy and Hansen"},
{"Name":"Charissa Hayfield","Location":"9512 Novick Point","Phone":"471-380-6225","Company":"Bednar, Haley and Marvin"},
{"Name":"Betty Holberry","Location":"4 Gateway Place","Phone":"306-921-8852","Company":"Torphy, Larkin and Dooley"},
{"Name":"George Harrigan","Location":"97 Porter Trail","Phone":"671-258-9095","Company":"Dibbert LLC"},
{"Name":"Lyell Tease","Location":"917 Oakridge Way","Phone":"712-614-2426","Company":"Schaefer LLC"},
{"Name":"Alvan Potteridge","Location":"8542 Hovde Hill","Phone":"659-853-3061","Company":"Beier, Becker and Jerde"},
{"Name":"Brooks Dietsche","Location":"7897 Troy Junction","Phone":"151-532-4975","Company":"Shields, Runolfsson and Welch"},
{"Name":"Walden Warin","Location":"27499 Blaine Drive","Phone":"891-595-2724","Company":"Gorczany and Sons"},
{"Name":"Nealy Banghe","Location":"10111 Daystar Lane","Phone":"259-973-1758","Company":"Wuckert, Cassin and Rutherford"},
{"Name":"Rebekah Inchley","Location":"96949 Westend Avenue","Phone":"570-550-0738","Company":"Cormier-Little"},
{"Name":"Colette Giberd","Location":"71 Carioca Road","Phone":"872-693-5711","Company":"Volkman-Murazik"},
{"Name":"Alastair Harrinson","Location":"00 Mcguire Road","Phone":"664-839-4318","Company":"Senger, Runolfsson and Kreiger"},
{"Name":"Corliss Schelle","Location":"317 Straubel Pass","Phone":"150-700-0790","Company":"Pouros, Lubowitz and Sipes"},
{"Name":"Cello McQuaide","Location":"64600 Linden Drive","Phone":"210-750-8379","Company":"Schulist-Lindgren"},
{"Name":"Renate Allatt","Location":"0955 Charing Cross Parkway","Phone":"460-369-6682","Company":"Ondricka Inc"},
{"Name":"Ranna Fowlds","Location":"23 Ryan Point","Phone":"325-911-7125","Company":"Emard and Sons"},
{"Name":"Daren Town","Location":"42 Vernon Street","Phone":"186-825-2815","Company":"Waelchi, Greenholt and Lebsack"},
{"Name":"Aluino Matyugin","Location":"04 2nd Place","Phone":"151-717-8731","Company":"Bogan Group"},
{"Name":"Elfrieda Audsley","Location":"41 Hermina Place","Phone":"312-766-3476","Company":"Ondricka and Sons"},
{"Name":"Izaak Ecclestone","Location":"5 Cody Pass","Phone":"392-138-9454","Company":"Beer-Stehr"},
{"Name":"Blaine Fiddiman","Location":"7 Artisan Trail","Phone":"736-547-5352","Company":"Sauer, Collins and Jakubowski"},
{"Name":"Vikki MacCallam","Location":"9 Spohn Street","Phone":"412-656-9579","Company":"Abernathy-Johnson"},
{"Name":"Mei Hallward","Location":"84 Bluejay Drive","Phone":"291-656-7743","Company":"Olson-Walter"},
{"Name":"Ally Fishleigh","Location":"2440 Pepper Wood Park","Phone":"779-307-8759","Company":"Boyer, Schoen and Treutel"},
{"Name":"Sonja Philipson","Location":"462 Orin Plaza","Phone":"493-770-6584","Company":"Dicki, Doyle and Baumbach"},
{"Name":"Menard Farherty","Location":"0609 Bultman Alley","Phone":"688-490-9713","Company":"Beahan-Watsica"},
{"Name":"Humberto Ionnisian","Location":"525 Algoma Parkway","Phone":"670-434-4337","Company":"Roob-Reichert"},
{"Name":"Edlin Conduit","Location":"6 Bay Point","Phone":"730-875-7759","Company":"Ondricka-Grant"},
{"Name":"Bentlee Korpolak","Location":"4 Pond Avenue","Phone":"883-459-1626","Company":"Kertzmann-Kihn"},
{"Name":"Moritz Troker","Location":"5 Spenser Avenue","Phone":"582-517-9876","Company":"Bernier, Keeling and Zulauf"},
{"Name":"Ericka Noonan","Location":"9 Loeprich Pass","Phone":"204-376-7202","Company":"Padberg, Hoppe and Pfannerstill"},
{"Name":"Walt De Giovanni","Location":"17 Hansons Lane","Phone":"809-767-6246","Company":"Kunde Inc"},
{"Name":"Jodie Conduit","Location":"4 Monica Hill","Phone":"689-704-3666","Company":"Lind and Sons"},
{"Name":"Yorke Esparza","Location":"938 Mitchell Parkway","Phone":"175-283-7496","Company":"Beatty LLC"},
{"Name":"Henderson McFadin","Location":"79 Melrose Place","Phone":"468-170-5601","Company":"Mann LLC"},
{"Name":"Michal Jodrellec","Location":"41 Maple Court","Phone":"407-191-7718","Company":"Crist-Smith"},
{"Name":"Gloriana Hatley","Location":"35 Hoard Park","Phone":"221-119-5470","Company":"Block, Eichmann and Kihn"},
{"Name":"Crissy Swannie","Location":"613 Anthes Place","Phone":"467-443-0224","Company":"Davis Group"},
{"Name":"Kelsey Loker","Location":"3 Dayton Court","Phone":"201-773-1609","Company":"Crona-Romaguera"},
{"Name":"Brian Bottoms","Location":"1 Glendale Street","Phone":"688-731-4841","Company":"Kshlerin-Pacocha"},
{"Name":"Russell Besantie","Location":"818 Huxley Road","Phone":"768-199-1813","Company":"Schmeler, Schuster and Brekke"},
{"Name":"Bettina Bennitt","Location":"34 Mccormick Park","Phone":"424-290-4616","Company":"Dibbert, Lehner and Ritchie"},
{"Name":"Jay Cowgill","Location":"87 Westridge Place","Phone":"746-901-2678","Company":"Wunsch Inc"},
{"Name":"Francis Hunn","Location":"2653 Mendota Junction","Phone":"567-762-1033","Company":"Blanda and Sons"},
{"Name":"Jeremiah Theobalds","Location":"263 Loeprich Terrace","Phone":"352-363-8034","Company":"Beahan-Ankunding"},
{"Name":"Prue Cromblehome","Location":"60 Forest Terrace","Phone":"379-840-2108","Company":"Quigley and Sons"},
{"Name":"Cacilia Grocott","Location":"04 Marquette Terrace","Phone":"389-953-1340","Company":"McKenzie-Stehr"},
{"Name":"Flossie Pidwell","Location":"8 Red Cloud Road","Phone":"424-730-3231","Company":"Effertz, Volkman and Lang"},
{"Name":"Ellis Vellacott","Location":"1 Myrtle Junction","Phone":"133-652-0287","Company":"Dare LLC"},
{"Name":"Hedwig Dudny","Location":"1 Mcguire Lane","Phone":"871-984-0435","Company":"Konopelski-Block"},
{"Name":"Arie Slimmon","Location":"85585 Becker Plaza","Phone":"202-603-8094","Company":"Abernathy Group"},
{"Name":"Sissie MacBey","Location":"1 Corben Crossing","Phone":"856-446-0858","Company":"Heller Inc"},
{"Name":"Benjamin Gilchrest","Location":"99 Beilfuss Circle","Phone":"252-616-2782","Company":"Marquardt, Rau and Larkin"},
{"Name":"Karney Chasteau","Location":"0245 Graedel Junction","Phone":"310-261-0272","Company":"Cassin Inc"},
{"Name":"Maurizio Hearsey","Location":"04362 Carey Crossing","Phone":"882-631-8613","Company":"Walker-Jakubowski"},
{"Name":"Stillmann Tenman","Location":"228 Superior Place","Phone":"929-865-7954","Company":"Wehner Group"},
{"Name":"Danya McIver","Location":"854 Dovetail Trail","Phone":"764-966-8662","Company":"Hegmann and Sons"},
{"Name":"Bev Cluer","Location":"37373 Petterle Avenue","Phone":"577-759-0080","Company":"Moen-Volkman"},
{"Name":"Jacinda Hundall","Location":"1 Cascade Way","Phone":"176-675-1176","Company":"Hudson, Cormier and Kemmer"},
{"Name":"Van Farlowe","Location":"287 Alpine Park","Phone":"440-209-4211","Company":"Kling, Gutkowski and Volkman"},
{"Name":"Court Hesey","Location":"3 Dexter Junction","Phone":"588-515-3346","Company":"Cummerata, Pfannerstill and Nader"},
{"Name":"Antonie Dutteridge","Location":"9103 Vernon Pass","Phone":"351-924-2321","Company":"Bogan and Sons"},
{"Name":"Nevin Lound","Location":"536 Donald Junction","Phone":"587-547-5599","Company":"Roob and Sons"},
{"Name":"Elicia Blessed","Location":"79 Tennyson Circle","Phone":"652-218-9576","Company":"Bode, Breitenberg and Schamberger"},
{"Name":"Cam Sussams","Location":"32 Sunfield Alley","Phone":"659-253-3112","Company":"Nolan, Hansen and Schiller"},
{"Name":"Merna Packer","Location":"37 South Drive","Phone":"679-909-5782","Company":"Lebsack Group"},
{"Name":"Papageno Mattaser","Location":"85 Welch Circle","Phone":"734-194-9548","Company":"Denesik, Lubowitz and Beahan"},
{"Name":"Idell Logue","Location":"68 Columbus Avenue","Phone":"618-122-8377","Company":"Wiza, Walker and Skiles"},
{"Name":"Hadrian Blythin","Location":"94 Graedel Lane","Phone":"749-418-2636","Company":"Olson-Kiehn"},
{"Name":"Spense Cast","Location":"7 Kipling Parkway","Phone":"894-454-3388","Company":"Beatty-Grant"},
{"Name":"Lian Richardin","Location":"821 Arapahoe Parkway","Phone":"478-279-2352","Company":"Von Group"},
{"Name":"Dela Ashley","Location":"73 Union Pass","Phone":"127-614-8985","Company":"Roob, Dickens and O'Kon"},
{"Name":"Andrus Haberfield","Location":"5 Sommers Place","Phone":"551-323-0178","Company":"Rogahn LLC"},
{"Name":"Alric Petera","Location":"59 Dayton Place","Phone":"131-979-0620","Company":"Leuschke and Sons"},
{"Name":"Alejandro Benbow","Location":"0909 Alpine Terrace","Phone":"602-629-5314","Company":"Reinger-Lowe"},
{"Name":"Beck Rittelmeyer","Location":"4 Eagan Road","Phone":"119-337-8127","Company":"Hoeger-Pagac"},
{"Name":"Dimitri Brobyn","Location":"49747 Tennyson Trail","Phone":"617-821-7338","Company":"Welch, Kozey and Stracke"},
{"Name":"Marylou Kennelly","Location":"1 Hagan Center","Phone":"987-653-9858","Company":"Abernathy, Murazik and Donnelly"},
{"Name":"Seumas Stoite","Location":"5621 Clyde Gallagher Junction","Phone":"387-921-3112","Company":"Ortiz, Wyman and Barton"},
{"Name":"Lelah Lantuff","Location":"01 Lukken Plaza","Phone":"463-870-2601","Company":"Strosin-McCullough"},
{"Name":"Lira Dorset","Location":"56503 Continental Circle","Phone":"953-499-8416","Company":"Ruecker, Wilderman and Kiehn"},
{"Name":"Almeria Pochon","Location":"37 Cody Way","Phone":"609-575-0826","Company":"Swift, Smith and Vandervort"},
{"Name":"Winifield Atwood","Location":"2195 Armistice Junction","Phone":"910-523-2500","Company":"Runolfsson-Volkman"},
{"Name":"Curt Andrysiak","Location":"45221 Duke Parkway","Phone":"418-104-2223","Company":"Nicolas, Rice and Haley"},
{"Name":"Elsy Kahan","Location":"666 Ridgeview Point","Phone":"317-756-8585","Company":"Zboncak, Leuschke and Kerluke"},
{"Name":"Lorri Blackesland","Location":"48525 Eagle Crest Pass","Phone":"390-903-6419","Company":"Douglas-Klocko"},
{"Name":"Wendel Kassidy","Location":"285 Manufacturers Hill","Phone":"198-126-8603","Company":"Stracke and Sons"},
{"Name":"Micheil Corpe","Location":"36 Debra Trail","Phone":"378-337-0785","Company":"Gislason, Cummerata and Kub"},
{"Name":"Clayson Batistelli","Location":"1 Burning Wood Circle","Phone":"278-311-7340","Company":"O'Conner Group"},
{"Name":"Ruy Facer","Location":"80034 Pierstorff Lane","Phone":"811-159-8010","Company":"Kilback, Powlowski and Osinski"},
{"Name":"Dinny Rymour","Location":"473 Becker Drive","Phone":"533-926-5171","Company":"Mertz Group"},
{"Name":"Lanita Rutley","Location":"13 Mcbride Drive","Phone":"200-543-8540","Company":"Kub-Mohr"},
{"Name":"Ibby Palphreyman","Location":"9673 Rigney Street","Phone":"811-913-5664","Company":"Emard, Auer and Feest"},
{"Name":"Avigdor Dougher","Location":"5 Lerdahl Trail","Phone":"404-414-1669","Company":"Macejkovic, Ledner and Reinger"},
{"Name":"Penni Dohrmann","Location":"53 Leroy Plaza","Phone":"303-759-5368","Company":"Koepp and Sons"},
{"Name":"Nicolis Hukins","Location":"011 North Crossing","Phone":"686-491-0719","Company":"Gerhold-Kshlerin"},
{"Name":"Minna Chagg","Location":"53 Moose Lane","Phone":"842-779-9392","Company":"Breitenberg-Kub"},
{"Name":"Moshe McPhee","Location":"448 Westport Hill","Phone":"219-173-8532","Company":"Kreiger, Daniel and Simonis"},
{"Name":"Maximilianus Mattheus","Location":"0007 Brickson Park Plaza","Phone":"120-477-7733","Company":"Koepp, Altenwerth and Thompson"},
{"Name":"Noe Spackman","Location":"5 Corben Avenue","Phone":"179-567-3418","Company":"Homenick Group"},
{"Name":"Lanna Balme","Location":"67 Cordelia Road","Phone":"200-612-9938","Company":"Koch-Koss"},
{"Name":"Vergil Goolden","Location":"649 Merry Drive","Phone":"864-944-6724","Company":"Cruickshank-Cronin"},
{"Name":"Cathie Holleran","Location":"98575 Green Point","Phone":"616-755-7148","Company":"Larkin Group"},
{"Name":"Dave Eames","Location":"36371 Browning Way","Phone":"618-900-6362","Company":"Doyle, Lueilwitz and Russel"},
{"Name":"Stevana Antonacci","Location":"08029 Northfield Way","Phone":"342-890-1611","Company":"Hilll and Sons"},
{"Name":"Seana Stocks","Location":"08 Heffernan Hill","Phone":"356-968-4652","Company":"Wilderman, Lehner and Lueilwitz"},
{"Name":"Calli Yuryichev","Location":"0 Meadow Ridge Plaza","Phone":"378-816-3198","Company":"Prosacco-D'Amore"},
{"Name":"Nero Masdon","Location":"941 Sutherland Way","Phone":"972-329-7866","Company":"Heller-Corwin"},
{"Name":"Cesaro Kyrkeman","Location":"593 Nova Road","Phone":"219-602-9951","Company":"Kunze, Rau and Boehm"},
{"Name":"Florina Mickelwright","Location":"2558 Bonner Court","Phone":"314-297-7500","Company":"Hermann and Sons"},
{"Name":"Engelbert Whaley","Location":"588 Barby Place","Phone":"862-943-0892","Company":"Hamill LLC"},
{"Name":"Georgina Dixsee","Location":"369 Schmedeman Lane","Phone":"807-424-4722","Company":"Bergstrom Group"},
{"Name":"Salomon Sewall","Location":"715 Delaware Plaza","Phone":"136-148-0217","Company":"Bailey LLC"},
{"Name":"Hendrik Castagnier","Location":"33 Oriole Street","Phone":"362-334-7015","Company":"Heidenreich Inc"},
{"Name":"Ingaborg Pimme","Location":"7824 Longview Street","Phone":"159-122-7245","Company":"Fisher, Ernser and Gleichner"},
{"Name":"Cord Kindread","Location":"1163 Carberry Hill","Phone":"792-361-6268","Company":"Lemke Inc"},
{"Name":"Sayres MacGhee","Location":"0 Washington Terrace","Phone":"452-898-5128","Company":"Deckow, Klocko and Koepp"},
{"Name":"Richmond Flecknell","Location":"4 Center Avenue","Phone":"756-137-4561","Company":"Durgan-Dach"},
{"Name":"Sherwood Farris","Location":"2175 Leroy Street","Phone":"404-513-1377","Company":"Auer, Heathcote and Shanahan"},
{"Name":"Mill Horder","Location":"4546 Reindahl Trail","Phone":"880-585-8350","Company":"Brown and Sons"},
{"Name":"Fae Howis","Location":"323 Pierstorff Drive","Phone":"270-281-3147","Company":"Hauck-Olson"},
{"Name":"Worthington Pettisall","Location":"21367 Carey Way","Phone":"709-488-1147","Company":"Mitchell Inc"},
{"Name":"Evangeline Twinbrow","Location":"8709 Birchwood Park","Phone":"520-881-1688","Company":"Bergnaum Group"},
{"Name":"Dagmar Bang","Location":"24758 Kipling Road","Phone":"516-421-9529","Company":"McKenzie-Adams"},
{"Name":"Jacinda Wastie","Location":"8116 Stephen Terrace","Phone":"469-695-0545","Company":"Hackett, Ankunding and Cummings"},
{"Name":"Rafi Kerridge","Location":"08301 Mallory Crossing","Phone":"417-918-7382","Company":"Kozey-Kozey"},
{"Name":"Nickolai D'Onisi","Location":"969 Briar Crest Plaza","Phone":"107-553-8343","Company":"Rath and Sons"},
{"Name":"Clarence Gonzalvo","Location":"9058 Mallard Street","Phone":"991-982-4607","Company":"Kautzer-Fay"},
{"Name":"Lelia Sandford","Location":"0635 Moose Crossing","Phone":"287-503-4191","Company":"Bashirian, Kuhn and Weimann"},
{"Name":"Violante Coppin","Location":"21 Schlimgen Way","Phone":"501-309-7980","Company":"Swaniawski and Sons"},
{"Name":"Leona Lintin","Location":"624 Kropf Parkway","Phone":"845-150-0822","Company":"Witting-Kuhn"},
{"Name":"Ericha Mallinder","Location":"469 Commercial Alley","Phone":"562-142-7885","Company":"Wisoky-Okuneva"},
{"Name":"Christos Beggin","Location":"94960 Pierstorff Avenue","Phone":"987-501-3757","Company":"Padberg and Sons"},
{"Name":"Karlyn Masterman","Location":"247 Bunting Hill","Phone":"804-811-6528","Company":"Howell-Barrows"},
{"Name":"Arne Blance","Location":"9704 Buhler Crossing","Phone":"764-583-8425","Company":"Runolfsson-Tromp"},
{"Name":"Kristy Sneddon","Location":"630 Becker Parkway","Phone":"383-938-4332","Company":"Raynor Inc"},
{"Name":"Josias Edgson","Location":"90 Parkside Street","Phone":"508-320-9231","Company":"Larson-Johns"},
{"Name":"Barney Wigzell","Location":"9760 Kim Crossing","Phone":"908-376-0895","Company":"Dare-Prohaska"},
{"Name":"Balduin Hobson","Location":"0497 Bunker Hill Center","Phone":"272-986-3422","Company":"Lebsack, Heidenreich and Frami"},
{"Name":"Cathyleen Keoghane","Location":"5 Hooker Street","Phone":"753-194-1574","Company":"Hahn, Prohaska and Christiansen"},
{"Name":"Ernst Chastand","Location":"42018 Texas Hill","Phone":"475-773-3072","Company":"Schinner, Pfannerstill and Ziemann"},
{"Name":"Iolande Kellitt","Location":"95 Shoshone Lane","Phone":"702-388-2941","Company":"Kirlin LLC"},
{"Name":"Carrissa Lander","Location":"9 Shelley Street","Phone":"867-464-8495","Company":"Sauer-Gaylord"},
{"Name":"Roxi Bucham","Location":"5 Hoard Court","Phone":"809-925-8128","Company":"Conroy and Sons"},
{"Name":"Sallyann Eaken","Location":"89304 Harper Plaza","Phone":"415-117-2785","Company":"Beatty, Prosacco and Gislason"},
{"Name":"David Greenhead","Location":"24 Schlimgen Point","Phone":"445-918-2479","Company":"Eichmann, Koch and Klocko"},
{"Name":"Demetri Liddell","Location":"9 Norway Maple Circle","Phone":"666-801-2635","Company":"Weimann-Hane"},
{"Name":"Baudoin McCurry","Location":"02805 Pankratz Junction","Phone":"719-438-1884","Company":"Bogan Group"},
{"Name":"Kerwinn Farres","Location":"78 Roth Crossing","Phone":"645-773-6746","Company":"Fritsch, Kuphal and Schmidt"},
{"Name":"Dorolice Brabben","Location":"95887 Reindahl Drive","Phone":"216-566-8821","Company":"Koch Group"},
{"Name":"Traci Blackett","Location":"52442 Mcbride Park","Phone":"584-879-5804","Company":"Price Group"},
{"Name":"Marie-ann Hutchcraft","Location":"14 Loomis Lane","Phone":"237-447-0955","Company":"Littel Group"},
{"Name":"Connie Rylatt","Location":"100 Kinsman Way","Phone":"428-697-6511","Company":"Beatty, Hilll and Schaefer"},
{"Name":"Westleigh Morling","Location":"30322 Pleasure Trail","Phone":"618-735-3953","Company":"Raynor Inc"},
{"Name":"Gabbi Nealy","Location":"00 Dottie Road","Phone":"898-597-6576","Company":"Hills, Schaden and Brakus"},
{"Name":"Jelene Wimlett","Location":"62 Fair Oaks Plaza","Phone":"743-656-4999","Company":"Raynor-Abbott"},
{"Name":"Sabina Perrinchief","Location":"39424 Goodland Drive","Phone":"925-753-1068","Company":"Grant and Sons"},
{"Name":"Verna Rumbelow","Location":"41518 Buhler Street","Phone":"962-388-2387","Company":"Pagac-Yost"},
{"Name":"Sloane Girardini","Location":"45 Sutherland Crossing","Phone":"151-848-0594","Company":"Schamberger-Leannon"},
{"Name":"Bob Farrington","Location":"52 Longview Park","Phone":"841-380-8933","Company":"Hagenes Group"},
{"Name":"Tristan Siseland","Location":"600 Nobel Point","Phone":"639-631-5585","Company":"Hermann Group"},
{"Name":"Robin Jewsbury","Location":"36590 Nobel Plaza","Phone":"881-426-3474","Company":"Stark, Effertz and Bruen"},
{"Name":"Boniface Drees","Location":"781 Boyd Street","Phone":"109-277-5761","Company":"Beier-Vandervort"},
{"Name":"Carol Yanin","Location":"49016 Fairview Road","Phone":"265-358-1749","Company":"Jenkins Group"},
{"Name":"Clara Mingus","Location":"1089 Carioca Alley","Phone":"612-709-1480","Company":"Block, Greenfelder and Gibson"},
{"Name":"Rora O' Bee","Location":"3888 Hermina Parkway","Phone":"697-856-8416","Company":"Nolan-Hilpert"},
{"Name":"Trumann Presslee","Location":"4388 Loftsgordon Parkway","Phone":"895-381-6310","Company":"Bernier Group"},
{"Name":"Abel Kitter","Location":"3 Harbort Road","Phone":"495-790-8469","Company":"O'Reilly LLC"},
{"Name":"Benito Kinge","Location":"60985 Bowman Drive","Phone":"126-499-4390","Company":"Cassin, Reichert and Kshlerin"},
{"Name":"Mickie Pakeman","Location":"78523 Bay Court","Phone":"654-153-1605","Company":"Ward-Huel"},
{"Name":"Elana Hugonin","Location":"2 Artisan Place","Phone":"506-857-5009","Company":"Littel-Bogisich"},
{"Name":"Barth Heintz","Location":"296 4th Junction","Phone":"375-119-6647","Company":"Weissnat and Sons"},
{"Name":"Beatrisa Mazdon","Location":"476 Lakeland Center","Phone":"536-856-3119","Company":"Hammes Inc"},
{"Name":"Bobinette Joul","Location":"1457 Erie Court","Phone":"908-268-5720","Company":"Breitenberg, Langworth and Gulgowski"},
{"Name":"Marilin Sandyfirth","Location":"013 Rowland Road","Phone":"258-389-7368","Company":"Cartwright Inc"},
{"Name":"Ethelda Bouch","Location":"46260 Columbus Lane","Phone":"312-433-5208","Company":"Wehner-McDermott"},
{"Name":"Brana Tailour","Location":"2 Messerschmidt Court","Phone":"193-798-8756","Company":"Torphy, Volkman and Ryan"},
{"Name":"Dur Paffitt","Location":"23479 Eastwood Drive","Phone":"301-645-8928","Company":"O'Conner, Pfeffer and Kertzmann"},
{"Name":"Casar Mullane","Location":"7 Schlimgen Alley","Phone":"318-571-2463","Company":"Wunsch-Langworth"},
{"Name":"Ezekiel Olivi","Location":"53 Rockefeller Trail","Phone":"219-885-1324","Company":"Powlowski-Becker"},
{"Name":"Montague Wapple","Location":"09 Lillian Drive","Phone":"985-756-0349","Company":"Gerlach-Koch"},
{"Name":"Miner Carruth","Location":"10801 Macpherson Center","Phone":"279-474-2364","Company":"Hegmann-Wolf"},
{"Name":"Cliff Appleby","Location":"2 Armistice Crossing","Phone":"867-845-4139","Company":"Schaefer Inc"},
{"Name":"Rhodia Thomton","Location":"6 Sherman Pass","Phone":"731-403-8299","Company":"Hammes Group"},
{"Name":"Reynard Bacon","Location":"7 Laurel Avenue","Phone":"842-600-1697","Company":"McCullough-Morissette"},
{"Name":"Katine Rosso","Location":"0125 Westport Court","Phone":"329-876-9683","Company":"Heaney, Bernhard and Mayert"},
{"Name":"Rabbi McDavid","Location":"14 Becker Court","Phone":"662-458-3042","Company":"Bernhard, Hartmann and Sipes"},
{"Name":"Madelle Lernihan","Location":"9234 Dakota Junction","Phone":"561-728-8672","Company":"Thompson, Terry and Macejkovic"},
{"Name":"Hermina Peters","Location":"5 Northport Drive","Phone":"524-481-0923","Company":"Jones, Murphy and Eichmann"},
{"Name":"Suki Lago","Location":"394 Sheridan Terrace","Phone":"947-481-7881","Company":"Keebler Inc"},
{"Name":"Venita Josilevich","Location":"20 Lillian Court","Phone":"293-611-0613","Company":"Medhurst-Conroy"},
{"Name":"Garth Willstrop","Location":"7834 Northwestern Junction","Phone":"808-683-0989","Company":"Pagac and Sons"},
{"Name":"Dalt Balle","Location":"68396 Prairieview Hill","Phone":"953-107-4009","Company":"Mertz, Nader and Deckow"},
{"Name":"Galvin Tompkins","Location":"81 Park Meadow Terrace","Phone":"857-854-5296","Company":"Kozey, Blick and McCullough"},
{"Name":"Jaimie Massingberd","Location":"9 Schmedeman Place","Phone":"615-433-8812","Company":"Blick Group"},
{"Name":"Thibaut Gumbrell","Location":"0566 Calypso Street","Phone":"302-150-3471","Company":"O'Keefe Group"},
{"Name":"Gustie Wapol","Location":"5 Anthes Junction","Phone":"305-978-9088","Company":"Crist LLC"},
{"Name":"Lillian Jacob","Location":"01466 Straubel Street","Phone":"127-512-5431","Company":"Ullrich-Gusikowski"},
{"Name":"Karol Jessope","Location":"3129 Mallard Lane","Phone":"414-563-0373","Company":"Reilly-Wisozk"},
{"Name":"Barney Lutsch","Location":"7682 Rieder Road","Phone":"956-235-5504","Company":"Zieme Inc"},
{"Name":"Lorianna Egleton","Location":"5829 Hoffman Point","Phone":"830-314-1973","Company":"Ryan LLC"},
{"Name":"Scott Dunge","Location":"161 Mallard Junction","Phone":"994-745-6557","Company":"Kunze-Balistreri"},
{"Name":"Hilda Darkott","Location":"67 Crowley Plaza","Phone":"818-305-6780","Company":"McClure-Lueilwitz"},
{"Name":"Adolphus Enriquez","Location":"995 Buell Hill","Phone":"694-265-2859","Company":"Hoeger-Gerhold"},
{"Name":"Dinnie Guidotti","Location":"89880 Hauk Trail","Phone":"358-443-1530","Company":"Zemlak, Corkery and Ratke"},
{"Name":"Sari Decourcy","Location":"7944 Lerdahl Trail","Phone":"582-567-5924","Company":"Mayer, Collins and Schroeder"},
{"Name":"Jay Sidnell","Location":"85 Dennis Park","Phone":"695-798-3861","Company":"Olson-Casper"},
{"Name":"Ginnie Schwandner","Location":"20 Northwestern Alley","Phone":"808-200-6213","Company":"Sporer Group"},
{"Name":"Mamie Linton","Location":"1 Schiller Road","Phone":"944-610-9295","Company":"O'Reilly, Jast and Gaylord"},
{"Name":"Dillie Oldale","Location":"297 Londonderry Point","Phone":"723-249-0584","Company":"Blanda LLC"},
{"Name":"Elwyn Goldby","Location":"5 Dawn Crossing","Phone":"470-659-8503","Company":"Stamm and Sons"},
{"Name":"Spense Peddersen","Location":"481 Leroy Drive","Phone":"439-517-7164","Company":"Quitzon Group"},
{"Name":"Lorenzo De Miranda","Location":"483 Comanche Drive","Phone":"757-819-9078","Company":"Aufderhar-Emmerich"},
{"Name":"Philis Shreeve","Location":"858 Melody Park","Phone":"834-694-4580","Company":"Hansen, Hauck and Hettinger"},
{"Name":"Lorain Guild","Location":"8 Dexter Drive","Phone":"755-772-8012","Company":"Gerlach-Harber"},
{"Name":"Cory Chern","Location":"53 Ludington Parkway","Phone":"550-344-9406","Company":"Jakubowski and Sons"},
{"Name":"Mauricio Edwin","Location":"55339 Bellgrove Trail","Phone":"825-482-9396","Company":"Dooley-Cummings"},
{"Name":"Willie Schroeder","Location":"3 Troy Drive","Phone":"246-848-9749","Company":"Kessler Inc"},
{"Name":"Vikky Hedin","Location":"580 Dixon Terrace","Phone":"502-118-7129","Company":"Robel-Zulauf"},
{"Name":"Eal Ciccetti","Location":"0 Westridge Park","Phone":"587-262-2960","Company":"Keebler-Botsford"},
{"Name":"Kat Nimmo","Location":"696 Eastwood Terrace","Phone":"724-603-6749","Company":"Torphy-Sauer"},
{"Name":"Ana Gocher","Location":"9517 Swallow Road","Phone":"384-527-5927","Company":"Kozey Inc"},
{"Name":"Shannon Dunkerley","Location":"825 Tony Pass","Phone":"849-340-3857","Company":"Bechtelar-Klocko"},
{"Name":"Elvin Pedro","Location":"3469 Kings Trail","Phone":"997-582-1488","Company":"Doyle LLC"},
{"Name":"Nickolaus Yukhtin","Location":"2967 Brentwood Place","Phone":"274-978-9628","Company":"Gottlieb-Moen"},
{"Name":"Claudetta Wetton","Location":"361 Utah Crossing","Phone":"372-584-2774","Company":"Brown LLC"},
{"Name":"Sharline Featherby","Location":"5 Butterfield Terrace","Phone":"874-353-8458","Company":"Aufderhar LLC"},
{"Name":"Letty Gillmor","Location":"87 Moulton Circle","Phone":"441-535-5777","Company":"Legros, Walter and Kutch"},
{"Name":"Lilith Lockney","Location":"73479 Di Loreto Road","Phone":"588-832-4344","Company":"Keeling-Mertz"},
{"Name":"Dame Brugh","Location":"9957 Buhler Court","Phone":"601-295-7979","Company":"Bednar LLC"},
{"Name":"Rollin Eltune","Location":"9 Vermont Alley","Phone":"943-278-6303","Company":"Carroll-Roob"},
{"Name":"Rafaellle Llopis","Location":"334 Hoffman Crossing","Phone":"567-863-3597","Company":"Toy, Marks and Greenholt"},
{"Name":"Hollyanne Malpas","Location":"62 Shasta Lane","Phone":"740-467-6712","Company":"O'Kon, Collins and Schmitt"},
{"Name":"Justen Muzzollo","Location":"91 Lawn Road","Phone":"435-459-4095","Company":"Stark Inc"},
{"Name":"Barnie Franchioni","Location":"282 Gale Point","Phone":"300-595-2872","Company":"Goldner, Kreiger and Carroll"},
{"Name":"Shana Seath","Location":"59 Meadow Valley Street","Phone":"606-395-3296","Company":"Bode, Hettinger and Gislason"},
{"Name":"Muriel Hanstock","Location":"080 Shoshone Alley","Phone":"296-929-7107","Company":"Walker-Dietrich"},
{"Name":"Guido Amthor","Location":"01 Susan Crossing","Phone":"450-306-3417","Company":"Schoen-Heidenreich"},
{"Name":"Kassi Doding","Location":"1 Bunker Hill Center","Phone":"233-103-2739","Company":"Runolfsson and Sons"},
{"Name":"Brinn Abbys","Location":"82 Green Ridge Avenue","Phone":"659-387-7182","Company":"Schmeler-Sanford"},
{"Name":"Lonni Cluckie","Location":"84260 Becker Place","Phone":"992-590-0096","Company":"Littel LLC"},
{"Name":"Ezra Batham","Location":"1 Miller Street","Phone":"389-368-1655","Company":"Koepp LLC"},
{"Name":"Andreana Seed","Location":"0313 Bluejay Road","Phone":"214-158-1343","Company":"Weber and Sons"},
{"Name":"Catriona Eddowes","Location":"7 Thompson Alley","Phone":"113-813-7839","Company":"Miller, Zboncak and Auer"},
{"Name":"Carey Caldairou","Location":"09 Sloan Alley","Phone":"154-888-2344","Company":"Balistreri-Wilkinson"},
{"Name":"Dorie Dedenham","Location":"561 Portage Pass","Phone":"786-975-9275","Company":"Weissnat-Brown"},
{"Name":"Lorette Dutnell","Location":"04 Butterfield Parkway","Phone":"138-660-0339","Company":"Stamm, Kuhn and Johnston"},
{"Name":"Sayer Hargreave","Location":"07078 Crowley Pass","Phone":"747-688-0506","Company":"Towne, Volkman and Pfeffer"},
{"Name":"Cloris Salsbury","Location":"7 Division Parkway","Phone":"402-223-6048","Company":"Hegmann, Stokes and Cormier"},
{"Name":"Katya Maxwale","Location":"01210 Scoville Pass","Phone":"251-112-5053","Company":"Hills-Walter"},
{"Name":"Lindsy Roan","Location":"9530 Anderson Road","Phone":"702-322-6199","Company":"Weber, Larkin and Gerhold"},
{"Name":"Lissa Baynom","Location":"4 Warbler Avenue","Phone":"190-545-4700","Company":"Hills-Bergnaum"},
{"Name":"Andrej Rennocks","Location":"5 Helena Drive","Phone":"296-428-8554","Company":"Koepp and Sons"},
{"Name":"Janaya Warr","Location":"7 Mandrake Street","Phone":"524-225-7995","Company":"Windler Inc"},
{"Name":"Verile Quimby","Location":"55903 Moland Circle","Phone":"851-552-2145","Company":"Baumbach-Conroy"},
{"Name":"Katherine Grady","Location":"120 Kingsford Place","Phone":"689-950-0577","Company":"Kiehn-Wiza"},
{"Name":"Flint Normanvill","Location":"08423 Chive Hill","Phone":"885-716-9956","Company":"Quigley, Dicki and Murray"},
{"Name":"Brittni Teesdale","Location":"4073 Washington Center","Phone":"230-580-7835","Company":"Denesik, Abernathy and Kulas"},
{"Name":"Anthia Dover","Location":"984 Beilfuss Junction","Phone":"627-636-4829","Company":"Schultz Inc"},
{"Name":"Bridget Shoesmith","Location":"45 International Way","Phone":"247-761-0085","Company":"Mraz, Hane and Funk"},
{"Name":"Karyl Kennett","Location":"9 Rutledge Avenue","Phone":"592-891-3405","Company":"Stehr-Hoeger"},
{"Name":"Jordanna Swatheridge","Location":"8 Kenwood Street","Phone":"791-210-6113","Company":"Abshire Inc"},
{"Name":"Ardyth Percival","Location":"99456 Redwing Crossing","Phone":"151-409-2520","Company":"Davis, Lindgren and Eichmann"},
{"Name":"Richie Rennebeck","Location":"58704 Roth Avenue","Phone":"371-570-4421","Company":"Upton and Sons"},
{"Name":"Chrissy Domel","Location":"08552 Sachtjen Road","Phone":"385-405-7946","Company":"Cormier and Sons"},
{"Name":"Oates Spataro","Location":"7171 Commercial Circle","Phone":"270-708-2900","Company":"Johnson, Smith and Gottlieb"},
{"Name":"Kareem Thyng","Location":"4 Elka Park","Phone":"332-914-5653","Company":"Hayes, Ullrich and Rosenbaum"},
{"Name":"Terrel Dmitriev","Location":"21427 Longview Plaza","Phone":"781-199-4168","Company":"Marvin, Schaden and Johnston"},
{"Name":"Raul Shapira","Location":"2 Fairview Terrace","Phone":"723-682-3287","Company":"Kohler Group"},
{"Name":"Mirabelle Silcock","Location":"04573 Forest Run Way","Phone":"376-290-8679","Company":"Denesik-Zulauf"},
{"Name":"Blinni Trembey","Location":"589 Karstens Street","Phone":"952-702-5628","Company":"Lehner-Daugherty"},
{"Name":"Sarene Weiss","Location":"3535 Steensland Pass","Phone":"937-843-1073","Company":"Prosacco, Farrell and Heathcote"},
{"Name":"Hillard Cottle","Location":"6 Sunfield Street","Phone":"832-173-2439","Company":"Cassin-Rodriguez"},
{"Name":"Maggi Elsegood","Location":"6 Hollow Ridge Hill","Phone":"124-157-7520","Company":"Morissette Inc"},
{"Name":"Virginie Wabersinke","Location":"2 Commercial Plaza","Phone":"650-417-2448","Company":"O'Reilly Inc"},
{"Name":"Jareb Van der Merwe","Location":"34188 Mesta Place","Phone":"467-762-8373","Company":"Schmitt, Wunsch and Schneider"},
{"Name":"Margery Corselles","Location":"54 Dakota Junction","Phone":"305-654-8256","Company":"Corwin-Gibson"},
{"Name":"Abba Preist","Location":"47 Oak Circle","Phone":"948-748-3389","Company":"Kozey, Fritsch and Rath"},
{"Name":"Bevan Ogglebie","Location":"82 Kings Pass","Phone":"600-621-9204","Company":"Abernathy Group"},
{"Name":"Dari Coling","Location":"2 Reindahl Center","Phone":"580-431-5611","Company":"Little LLC"},
{"Name":"Hugo Karolovsky","Location":"5 Johnson Alley","Phone":"634-971-7439","Company":"Schimmel, Lang and MacGyver"},
{"Name":"Llywellyn Tompsett","Location":"145 Anzinger Avenue","Phone":"228-108-5835","Company":"Rice LLC"},
{"Name":"Allianora Mooreed","Location":"0 Vernon Park","Phone":"626-151-7845","Company":"Corkery-Keebler"},
{"Name":"Orelle Dollin","Location":"8 Meadow Valley Court","Phone":"375-509-3179","Company":"Skiles, Beahan and Brekke"},
{"Name":"Matthus Boyse","Location":"80 Old Gate Junction","Phone":"157-484-8298","Company":"Bins LLC"},
{"Name":"Loree Olivella","Location":"133 Huxley Circle","Phone":"942-815-7524","Company":"Schmitt, Torphy and Goodwin"},
{"Name":"Sim Acedo","Location":"3 Anzinger Court","Phone":"950-461-1445","Company":"Volkman, Dietrich and Turcotte"},
{"Name":"Donavon Wallbutton","Location":"12037 Vidon Alley","Phone":"726-905-8088","Company":"Miller, Nader and Herzog"},
{"Name":"Idell O'Sherin","Location":"9 Brentwood Hill","Phone":"233-924-8698","Company":"Kulas-Olson"},
{"Name":"Hugibert Shade","Location":"0 5th Point","Phone":"847-814-1676","Company":"Kovacek, Zieme and Kuhlman"},
{"Name":"Sanderson Folke","Location":"577 Sage Street","Phone":"261-284-4232","Company":"Rath, Gutmann and Hodkiewicz"},
{"Name":"Archer Climson","Location":"148 Dixon Plaza","Phone":"208-697-1750","Company":"Rolfson-Boyer"},
{"Name":"Alicea Pillman","Location":"09525 Hansons Point","Phone":"762-839-0553","Company":"Rempel, Sawayn and Dare"},
{"Name":"Falkner Grewar","Location":"65 Johnson Way","Phone":"333-208-1428","Company":"Schneider-Conroy"},
{"Name":"Tim Spearing","Location":"360 Cascade Drive","Phone":"502-648-9039","Company":"Lindgren-Schneider"},
{"Name":"Reggis Cossom","Location":"8 Graedel Avenue","Phone":"351-442-9508","Company":"Welch Group"},
{"Name":"Constantine Gilbank","Location":"0490 Forest Run Crossing","Phone":"938-263-2822","Company":"Sanford, Corkery and Boyle"},
{"Name":"Devonne Baldree","Location":"627 Sommers Place","Phone":"339-895-7772","Company":"Deckow-Dickens"},
{"Name":"Angy Darville","Location":"762 Charing Cross Avenue","Phone":"930-679-2275","Company":"Abernathy-Eichmann"},
{"Name":"Tabitha Kidds","Location":"802 Gina Road","Phone":"942-262-0544","Company":"Bernier Inc"},
{"Name":"Tracy Dighton","Location":"077 Rockefeller Avenue","Phone":"680-388-4292","Company":"Collins-Nikolaus"},
{"Name":"Mildred Moule","Location":"45 8th Hill","Phone":"659-432-0502","Company":"Turcotte Group"},
{"Name":"Loralie Wolffers","Location":"0118 Vahlen Avenue","Phone":"188-730-1523","Company":"Halvorson-Wisoky"},
{"Name":"Tiff Hirthe","Location":"21 Mayfield Terrace","Phone":"380-805-6693","Company":"Lowe, Leannon and Rohan"},
{"Name":"Cesar Tschiersch","Location":"80309 Pepper Wood Pass","Phone":"873-425-1027","Company":"Daugherty-Schroeder"},
{"Name":"Gilberte Datte","Location":"342 Vera Circle","Phone":"519-983-7353","Company":"Labadie Inc"},
{"Name":"Kippy Bravery","Location":"866 Graceland Pass","Phone":"492-340-6142","Company":"Metz, Rippin and Auer"},
{"Name":"Evangelin Degenhardt","Location":"6850 Burning Wood Place","Phone":"769-349-0068","Company":"Walker-McCullough"},
{"Name":"Norton Hould","Location":"2725 Oneill Center","Phone":"224-276-2774","Company":"Funk LLC"},
{"Name":"Linda Coveny","Location":"701 Lyons Street","Phone":"713-964-6879","Company":"Brown-Gerhold"},
{"Name":"Madeleine Archbould","Location":"79 Petterle Trail","Phone":"995-600-4219","Company":"Reinger Inc"},
{"Name":"Wait Skaid","Location":"8806 Kingsford Avenue","Phone":"607-996-4918","Company":"Ebert LLC"},
{"Name":"Finley Yukhnevich","Location":"274 Valley Edge Plaza","Phone":"776-634-7780","Company":"Block, Dickinson and Jakubowski"},
{"Name":"Auberon Hursthouse","Location":"89 Maryland Plaza","Phone":"933-860-9425","Company":"Vandervort-Willms"},
{"Name":"Kailey Jellicorse","Location":"46 Surrey Junction","Phone":"501-826-7087","Company":"McLaughlin Group"},
{"Name":"Morganica Middle","Location":"729 Muir Place","Phone":"335-470-4167","Company":"Altenwerth, Bergnaum and Hintz"},
{"Name":"Halette Sterland","Location":"3 Ilene Court","Phone":"343-958-1343","Company":"Rice, Hirthe and Witting"},
{"Name":"Cecilia Provest","Location":"63730 Cascade Hill","Phone":"321-698-3030","Company":"Howell, Luettgen and O'Hara"},
{"Name":"Cullie Bawme","Location":"2 Elmside Center","Phone":"976-942-0009","Company":"Cartwright LLC"},
{"Name":"Karina Stoneley","Location":"2 Maryland Lane","Phone":"842-462-2895","Company":"Fadel-Leuschke"},
{"Name":"Orville Goulbourn","Location":"95 Colorado Trail","Phone":"249-432-9711","Company":"Steuber-Gorczany"},
{"Name":"Hakim O'Kennedy","Location":"68 Maple Court","Phone":"542-836-6809","Company":"Stark-Schmitt"},
{"Name":"Joanie Rickson","Location":"44 Bobwhite Terrace","Phone":"776-505-8621","Company":"Durgan-Okuneva"},
{"Name":"Lisette Clear","Location":"5 Rowland Point","Phone":"661-393-6992","Company":"Rohan-Zulauf"},
{"Name":"Benito Piaggia","Location":"8 Portage Street","Phone":"237-389-1923","Company":"Mraz and Sons"},
{"Name":"Filmer Norcock","Location":"015 Sherman Park","Phone":"372-876-6928","Company":"Schmitt-Runte"},
{"Name":"Monti Salmen","Location":"81 Center Circle","Phone":"721-953-6802","Company":"Klein-Schuppe"},
{"Name":"Land Blencowe","Location":"2 Calypso Avenue","Phone":"926-925-0564","Company":"Pfannerstill, Rosenbaum and Dietrich"},
{"Name":"Marnie Cogar","Location":"68 Little Fleur Pass","Phone":"522-974-2385","Company":"Beer-Shanahan"},
{"Name":"Karoline Mularkey","Location":"91414 Reindahl Point","Phone":"367-496-6390","Company":"Waters, Bailey and Hettinger"},
{"Name":"Simona Lehenmann","Location":"061 Corscot Terrace","Phone":"269-786-3610","Company":"Pacocha and Sons"},
{"Name":"Idaline Tetsall","Location":"29 Glendale Road","Phone":"855-397-8864","Company":"Senger, Steuber and Koss"},
{"Name":"Suzette Goodricke","Location":"94 Springs Junction","Phone":"962-424-6245","Company":"Davis, Hauck and Witting"},
{"Name":"Peggi Huckin","Location":"4 Vera Lane","Phone":"249-608-8942","Company":"Goodwin, Orn and Bechtelar"},
{"Name":"Debi Novak","Location":"79273 Sunnyside Plaza","Phone":"691-767-2814","Company":"Hamill, Kessler and Wuckert"},
{"Name":"Korey Kibblewhite","Location":"574 Katie Center","Phone":"755-346-8081","Company":"West LLC"},
{"Name":"Simonne Fairpool","Location":"07 Holmberg Junction","Phone":"683-366-4039","Company":"Boyer-Bayer"},
{"Name":"Kermit Dooly","Location":"014 Esker Plaza","Phone":"762-797-8442","Company":"Will-Boehm"},
{"Name":"Duff Whiffin","Location":"1891 Crownhardt Circle","Phone":"403-890-7292","Company":"Daugherty Group"},
{"Name":"Demetris Treker","Location":"36134 Fairview Park","Phone":"418-766-1855","Company":"Huel LLC"},
{"Name":"Khalil Braizier","Location":"22 Oxford Point","Phone":"938-964-2782","Company":"Towne-Hodkiewicz"},
{"Name":"Karoline Dunkerton","Location":"6 La Follette Point","Phone":"659-683-7333","Company":"Bogisich-Carter"},
{"Name":"Ivory Faltin","Location":"484 Buell Alley","Phone":"638-983-0372","Company":"Greenfelder Group"},
{"Name":"Helga Eddow","Location":"95 Lien Hill","Phone":"271-605-0998","Company":"Smith Inc"},
{"Name":"Bryon Todarello","Location":"62 Ryan Place","Phone":"325-474-3384","Company":"Tromp-Runolfsson"},
{"Name":"Jay Breitler","Location":"7248 Hintze Crossing","Phone":"830-516-0853","Company":"Rath, Thompson and Walker"},
{"Name":"Lizette Rickaert","Location":"23018 South Road","Phone":"433-822-3354","Company":"Runolfsdottir Group"},
{"Name":"Preston Santacrole","Location":"50 East Crossing","Phone":"381-479-3547","Company":"Sanford-Dickinson"},
{"Name":"Conny Curphey","Location":"0911 Boyd Lane","Phone":"926-219-9140","Company":"Stehr, Upton and Medhurst"},
{"Name":"Corie Swetenham","Location":"81663 Redwing Street","Phone":"898-530-6655","Company":"Huels Group"},
{"Name":"Lori Duffrie","Location":"580 Roth Crossing","Phone":"860-583-4425","Company":"Kub Group"},
{"Name":"Tomlin O'Kieran","Location":"6336 Anniversary Terrace","Phone":"302-100-8781","Company":"Walter and Sons"},
{"Name":"Andree Baal","Location":"3711 Emmet Avenue","Phone":"646-819-5359","Company":"Altenwerth-Koss"},
{"Name":"Weidar Beckford","Location":"73673 Division Circle","Phone":"393-943-0170","Company":"Klein LLC"},
{"Name":"Hannah Deboo","Location":"8 North Alley","Phone":"992-167-6996","Company":"Kirlin Inc"},
{"Name":"Brander Masselin","Location":"2 Blue Bill Park Court","Phone":"800-349-0732","Company":"Hermiston, Lang and Gutmann"},
{"Name":"Finn Baglow","Location":"88 Cody Terrace","Phone":"817-411-5160","Company":"Wisozk Inc"},
{"Name":"Wes Rupp","Location":"6088 Lindbergh Alley","Phone":"202-541-4933","Company":"Ankunding Inc"},
{"Name":"Mabel Kuhlmey","Location":"5 Green Pass","Phone":"818-731-7384","Company":"Doyle-Steuber"},
{"Name":"Wilt Rozzier","Location":"71939 Buhler Crossing","Phone":"257-519-9921","Company":"Brekke, Ferry and Runte"},
{"Name":"Pietro Dyball","Location":"4 Annamark Way","Phone":"938-276-9518","Company":"Cormier LLC"},
{"Name":"Tomas Berford","Location":"8 Hooker Park","Phone":"111-413-2314","Company":"Buckridge-Howe"},
{"Name":"Collete Prudence","Location":"2654 Hudson Way","Phone":"862-595-3436","Company":"Luettgen, Wisozk and Wiza"},
{"Name":"Pierette Bishell","Location":"12036 Holy Cross Crossing","Phone":"173-147-5071","Company":"Dickinson, Romaguera and Watsica"},
{"Name":"Clovis Minard","Location":"35462 Miller Trail","Phone":"319-910-2534","Company":"Rohan-Grimes"},
{"Name":"Wright Marsden","Location":"57636 Steensland Point","Phone":"141-813-3012","Company":"Streich-Nicolas"},
{"Name":"Wallis Landor","Location":"1 International Place","Phone":"332-118-8799","Company":"Reynolds-Effertz"},
{"Name":"Loy Beglin","Location":"0 Cascade Center","Phone":"401-703-5423","Company":"Kohler-Ernser"},
{"Name":"Spense Nicely","Location":"98 Quincy Circle","Phone":"101-615-0403","Company":"Moore and Sons"},
{"Name":"Marni Bremeyer","Location":"685 Hoepker Road","Phone":"681-821-4827","Company":"Kling LLC"},
{"Name":"Shayna Morland","Location":"315 Village Green Road","Phone":"251-484-2916","Company":"Williamson and Sons"},
{"Name":"Melba Wozencraft","Location":"09460 Crescent Oaks Avenue","Phone":"259-500-8603","Company":"Roob Inc"},
{"Name":"Emalia Corrao","Location":"2798 Heffernan Court","Phone":"230-259-5801","Company":"Fadel, Murray and Zulauf"},
{"Name":"Clerc Southernwood","Location":"8 Schmedeman Alley","Phone":"750-551-3035","Company":"Stroman-Effertz"},
{"Name":"Darleen Cantrill","Location":"427 Laurel Court","Phone":"465-741-0531","Company":"Cartwright-Witting"},
{"Name":"Kevon Kaesmakers","Location":"073 Homewood Parkway","Phone":"687-222-7901","Company":"Baumbach-Rohan"},
{"Name":"Garwood Osorio","Location":"9 Springview Trail","Phone":"157-138-1893","Company":"Torphy LLC"},
{"Name":"Iosep Simnor","Location":"751 Cody Place","Phone":"482-759-2144","Company":"Hand-Ondricka"},
{"Name":"Fredi Dorling","Location":"1 Hooker Alley","Phone":"393-321-3942","Company":"Rolfson, Daugherty and Flatley"},
{"Name":"Bertine Overil","Location":"23057 Lakewood Junction","Phone":"502-973-0028","Company":"Sawayn-Howell"},
{"Name":"Fleming MacAndie","Location":"97503 Gulseth Alley","Phone":"458-217-5989","Company":"Towne, Schumm and Friesen"},
{"Name":"Thorstein Kenrat","Location":"4 Sunnyside Circle","Phone":"109-892-2728","Company":"Keeling, D'Amore and Haley"},
{"Name":"Griffith Bodicam","Location":"73 Transport Parkway","Phone":"681-733-5665","Company":"Mitchell-Thiel"},
{"Name":"Claudie O'Shevlin","Location":"81024 Mandrake Hill","Phone":"679-162-8918","Company":"Huel, Kutch and Hilll"},
{"Name":"Cristobal Milella","Location":"33 Darwin Drive","Phone":"552-582-9811","Company":"Stehr-Reilly"},
{"Name":"Carmina Jupe","Location":"29 Bowman Junction","Phone":"491-518-8109","Company":"Abshire LLC"},
{"Name":"Suzanna Tapton","Location":"4 Columbus Terrace","Phone":"494-391-9648","Company":"Boehm and Sons"},
{"Name":"Timothy Chellingworth","Location":"76 Hanover Park","Phone":"881-520-2663","Company":"Balistreri and Sons"},
{"Name":"Estele Scrowton","Location":"38594 Vermont Road","Phone":"773-356-4587","Company":"Hodkiewicz, Crist and Abbott"},
{"Name":"Danit Cloney","Location":"29898 Dovetail Terrace","Phone":"538-192-2681","Company":"Klein-Stanton"},
{"Name":"Reilly Flagg","Location":"2 Ruskin Park","Phone":"294-370-0208","Company":"Crona, Durgan and Skiles"},
{"Name":"Ade McAtamney","Location":"19 Londonderry Junction","Phone":"291-436-0486","Company":"Kuhlman, Tromp and Auer"},
{"Name":"Benedict Bysouth","Location":"42704 Debra Alley","Phone":"249-341-3171","Company":"Smitham and Sons"},
{"Name":"Shane O' Clovan","Location":"20 Bluejay Parkway","Phone":"210-521-6839","Company":"Pollich, DuBuque and Kreiger"},
{"Name":"Alix Jeannesson","Location":"03706 Iowa Junction","Phone":"574-978-3813","Company":"Weimann-Thompson"},
{"Name":"De Jammet","Location":"1733 Stoughton Crossing","Phone":"703-937-3002","Company":"Ortiz-Goyette"},
{"Name":"Olva Poulden","Location":"8038 Susan Court","Phone":"714-342-6575","Company":"Beier-Gulgowski"},
{"Name":"Nels Beldon","Location":"1451 Atwood Center","Phone":"515-963-6151","Company":"Klein LLC"},
{"Name":"Daven Jerosch","Location":"4 Forest Street","Phone":"541-916-9213","Company":"Lang, Von and Dare"},
{"Name":"Delano Drysdell","Location":"65 Forest Court","Phone":"162-419-3690","Company":"Labadie LLC"},
{"Name":"Jemimah Matuszkiewicz","Location":"5931 Clove Junction","Phone":"439-151-8053","Company":"Hamill-Stiedemann"},
{"Name":"Vassily Grimmolby","Location":"83842 Graceland Alley","Phone":"847-176-4153","Company":"Morissette-Kiehn"},
{"Name":"Iona Lowndes","Location":"6750 Transport Drive","Phone":"198-217-2472","Company":"Hoeger Inc"},
{"Name":"Sileas Barrar","Location":"0264 Leroy Road","Phone":"883-890-6892","Company":"Rath-Wolf"},
{"Name":"Ken Keppy","Location":"1024 Little Fleur Center","Phone":"429-102-2904","Company":"Keeling-Anderson"},
{"Name":"Marita Rowantree","Location":"8943 Cherokee Center","Phone":"975-323-3384","Company":"Considine-Keeling"},
{"Name":"Willette Whooley","Location":"776 Spenser Crossing","Phone":"441-928-9905","Company":"Kuhn, Lemke and Smitham"},
{"Name":"Netty Massenhove","Location":"14664 Meadow Valley Street","Phone":"827-660-8756","Company":"Kozey Inc"},
{"Name":"Manda Domange","Location":"27 Commercial Parkway","Phone":"540-204-0082","Company":"Rohan Group"},
{"Name":"Otes MacKay","Location":"40876 Barnett Crossing","Phone":"874-922-3536","Company":"Daugherty Group"},
{"Name":"Boot Cassius","Location":"77 Welch Park","Phone":"246-728-4598","Company":"Murray, Rogahn and Beer"},
{"Name":"Alethea Ledgley","Location":"15 Cascade Way","Phone":"117-378-6980","Company":"Towne Group"},
{"Name":"Giraldo Kohrt","Location":"96559 Jenna Terrace","Phone":"480-263-1063","Company":"Quigley, Frami and Fadel"},
{"Name":"Lauren MacAnelley","Location":"18997 Waxwing Hill","Phone":"391-102-0838","Company":"Senger, Simonis and Johns"},
{"Name":"Poul Brellin","Location":"30 Clemons Hill","Phone":"592-343-6357","Company":"Flatley, Vandervort and Bayer"},
{"Name":"Thorin Benley","Location":"841 Gateway Plaza","Phone":"691-570-1532","Company":"Howe and Sons"},
{"Name":"Kelcy Lettley","Location":"0724 Grover Pass","Phone":"354-749-9096","Company":"Torp, Bode and Renner"},
{"Name":"Jarad Rump","Location":"1746 Buena Vista Junction","Phone":"714-139-9821","Company":"Gislason and Sons"},
{"Name":"Kaleb Coney","Location":"309 3rd Way","Phone":"132-708-7871","Company":"Walsh-Koepp"},
{"Name":"Scarlet Mayze","Location":"77 Sunfield Alley","Phone":"101-267-7784","Company":"Paucek, McGlynn and Nader"},
{"Name":"Shelia McGreary","Location":"5 Merchant Alley","Phone":"367-101-7422","Company":"Blick, McGlynn and Haag"},
{"Name":"Glyn Mattiacci","Location":"2563 Lakewood Gardens Hill","Phone":"959-277-6576","Company":"Price-Schroeder"},
{"Name":"Heall Ubsdall","Location":"7 Michigan Terrace","Phone":"659-647-5452","Company":"Mayert-McDermott"},
{"Name":"Joceline Glencorse","Location":"440 Toban Park","Phone":"930-492-0177","Company":"Bode-Goldner"},
{"Name":"Darby Ronnay","Location":"00796 Esch Pass","Phone":"825-871-2495","Company":"Hintz, Grady and Stokes"},
{"Name":"Chandra Janus","Location":"130 Katie Point","Phone":"807-319-4654","Company":"Murphy, Hamill and Pollich"},
{"Name":"Shelba Berthomieu","Location":"739 Vernon Way","Phone":"981-741-4495","Company":"Padberg-Kris"},
{"Name":"Candra Haydon","Location":"9236 Fairfield Pass","Phone":"691-823-7285","Company":"Kihn-Lang"},
{"Name":"Philbert Peeters","Location":"57 Becker Terrace","Phone":"546-437-5195","Company":"Kuphal-Lueilwitz"},
{"Name":"Gordy O'Donnelly","Location":"9 Lotheville Parkway","Phone":"111-107-2005","Company":"Ernser, Boyer and Kshlerin"},
{"Name":"Eleanore Doorbar","Location":"35039 Dixon Hill","Phone":"522-884-7994","Company":"Greenholt-Harber"},
{"Name":"Norbie Coughlin","Location":"558 Melby Court","Phone":"703-439-9776","Company":"Windler-Blick"},
{"Name":"Web Mackison","Location":"2585 Memorial Pass","Phone":"488-863-8147","Company":"Will, Bergstrom and Hoppe"},
{"Name":"Shel Mundall","Location":"52127 Browning Lane","Phone":"498-323-1067","Company":"Dietrich, Luettgen and Kuphal"},
{"Name":"Judith Nucciotti","Location":"4162 Melody Plaza","Phone":"151-466-3403","Company":"Lynch LLC"},
{"Name":"Jeremie Manchester","Location":"4 Blackbird Hill","Phone":"892-975-7850","Company":"Ebert-Casper"},
{"Name":"Seymour Pleavin","Location":"22598 Holmberg Road","Phone":"925-844-7365","Company":"Watsica, Prosacco and Bins"},
{"Name":"Jammal Benn","Location":"22 Brown Pass","Phone":"257-543-9969","Company":"Terry, Wilkinson and Donnelly"},
{"Name":"Nessie Lumsdale","Location":"18 Ryan Trail","Phone":"263-241-8743","Company":"Walker Inc"},
{"Name":"Kellen Hothersall","Location":"97 Continental Road","Phone":"405-201-1895","Company":"Crist Inc"},
{"Name":"Francis Sheahan","Location":"0665 Mcguire Hill","Phone":"681-376-8183","Company":"Pacocha-Kunde"},
{"Name":"Ondrea Phizackerly","Location":"901 Blue Bill Park Center","Phone":"966-539-6755","Company":"Senger, Zemlak and Wiza"},
{"Name":"Minette Treharne","Location":"10028 Melrose Alley","Phone":"209-211-6326","Company":"Abshire LLC"},
{"Name":"Judith O'Grada","Location":"7 John Wall Center","Phone":"980-423-1118","Company":"Weissnat-Stoltenberg"},
{"Name":"Cassie Harradence","Location":"9170 Swallow Trail","Phone":"410-414-1526","Company":"Osinski and Sons"},
{"Name":"Sax Wrist","Location":"9 Arrowood Place","Phone":"645-884-0218","Company":"Heidenreich, Weber and Morar"},
{"Name":"Gonzalo Learie","Location":"06862 Helena Street","Phone":"859-231-9508","Company":"Friesen-Pacocha"},
{"Name":"Morley Arnell","Location":"3 Harbort Place","Phone":"225-904-2723","Company":"Wilkinson-Herman"},
{"Name":"Towny Sterte","Location":"0803 Bay Crossing","Phone":"307-452-2838","Company":"Klein, Jones and Anderson"},
{"Name":"Lyndel Boutwell","Location":"395 Brickson Park Center","Phone":"887-502-0889","Company":"O'Conner-Franecki"},
{"Name":"Abby Normandale","Location":"02996 Hermina Alley","Phone":"739-922-6922","Company":"Howell, Kris and Roob"},
{"Name":"Giff Plampeyn","Location":"23446 High Crossing Street","Phone":"368-745-3709","Company":"DuBuque, Frami and Boehm"},
{"Name":"Zorah Shakespeare","Location":"42243 Luster Center","Phone":"278-389-1483","Company":"Larkin, D'Amore and Pfannerstill"},
{"Name":"Tonya Lidgely","Location":"035 Petterle Trail","Phone":"642-873-2299","Company":"McLaughlin-Borer"},
{"Name":"Borden Aicken","Location":"274 Armistice Terrace","Phone":"802-854-3593","Company":"Romaguera-Schuppe"},
{"Name":"Sapphire Gossling","Location":"47 Hagan Circle","Phone":"816-188-2284","Company":"Wuckert Inc"},
{"Name":"Marthe De la Yglesia","Location":"48362 Jay Avenue","Phone":"217-544-7339","Company":"Rogahn, Klein and Morar"},
{"Name":"Gun Dugan","Location":"1 Merrick Way","Phone":"355-675-3038","Company":"Connelly-Hamill"},
{"Name":"Tarrance Pinniger","Location":"34191 Forest Dale Center","Phone":"555-900-5752","Company":"Conn, Bednar and Williamson"},
{"Name":"Whitney Aujean","Location":"4750 Crescent Oaks Point","Phone":"176-989-8020","Company":"Kshlerin-Medhurst"},
{"Name":"Dickie Scotchmore","Location":"6172 Crowley Place","Phone":"337-876-0716","Company":"Terry Group"},
{"Name":"Lilly Veque","Location":"378 Nobel Circle","Phone":"793-788-6287","Company":"Boyer, Barton and Bins"},
{"Name":"Meredithe Matoshin","Location":"37636 Sherman Road","Phone":"350-731-1277","Company":"Towne-Weimann"},
{"Name":"Sidney Walstow","Location":"52044 Pleasure Street","Phone":"430-352-0079","Company":"Cole-Conroy"},
{"Name":"Fred Mulliss","Location":"40 Delladonna Alley","Phone":"498-465-4897","Company":"Berge, Smith and McDermott"},
{"Name":"Mattias Shale","Location":"7 Ridge Oak Road","Phone":"383-865-3969","Company":"Yundt, Fahey and Johnson"},
{"Name":"Curry Antonsen","Location":"51406 Chive Parkway","Phone":"950-830-5218","Company":"Casper Group"},
{"Name":"Tally Pawelke","Location":"0 Crowley Road","Phone":"900-899-5128","Company":"Fadel, Altenwerth and Sauer"},
{"Name":"Chickie Folkerts","Location":"24673 Larry Alley","Phone":"746-704-9832","Company":"Kuhlman Group"},
{"Name":"Dix Sayle","Location":"1179 Debs Trail","Phone":"732-525-1636","Company":"Labadie-Hirthe"},
{"Name":"Felicdad Blankhorn","Location":"494 Hintze Point","Phone":"704-798-1913","Company":"Cummings and Sons"},
{"Name":"Katine Ettles","Location":"70 Mitchell Place","Phone":"850-746-1458","Company":"Grimes LLC"},
{"Name":"Niki Jacobowits","Location":"75 Ludington Drive","Phone":"359-790-4158","Company":"McLaughlin-Harvey"},
{"Name":"Tiler Naseby","Location":"2653 Westend Circle","Phone":"229-143-7863","Company":"Mayer-Howe"},
{"Name":"Janean Shotbolt","Location":"5756 Del Mar Pass","Phone":"546-644-7327","Company":"Powlowski, Sawayn and Bernier"},
{"Name":"Lurette Barg","Location":"808 Reindahl Place","Phone":"250-376-5514","Company":"Hyatt and Sons"},
{"Name":"Dmitri Gasparro","Location":"92 Packers Court","Phone":"756-566-8743","Company":"Berge, Homenick and Ratke"},
{"Name":"Celinka Tremoille","Location":"6 Bellgrove Point","Phone":"487-681-7559","Company":"Wunsch-Berge"},
{"Name":"Daffie Nuttall","Location":"91423 Hoepker Street","Phone":"965-969-0442","Company":"Bartoletti, Schoen and McDermott"},
{"Name":"Gawain Vernham","Location":"3390 Ridgeview Point","Phone":"526-827-6408","Company":"Wunsch-Abshire"},
{"Name":"Prentice Tottle","Location":"94566 Eastlawn Terrace","Phone":"174-950-5549","Company":"Ledner, Hodkiewicz and Roberts"},
{"Name":"Julietta Tunesi","Location":"09372 Talisman Alley","Phone":"315-171-7170","Company":"Bahringer LLC"},
{"Name":"Andonis Leathart","Location":"3440 Bashford Hill","Phone":"172-876-8401","Company":"Hettinger Inc"},
{"Name":"Marcelo Grigaut","Location":"5431 Fordem Court","Phone":"132-959-2400","Company":"Kuvalis-Heller"},
{"Name":"Sibella Baigrie","Location":"4 Ridge Oak Lane","Phone":"826-759-8784","Company":"Fay-Greenholt"},
{"Name":"Crysta Pinel","Location":"54 Waxwing Lane","Phone":"924-582-6069","Company":"Simonis-Pfeffer"},
{"Name":"Alvera Lascell","Location":"64634 Pepper Wood Hill","Phone":"492-610-9150","Company":"Parker Inc"},
{"Name":"Jan Witt","Location":"750 Coleman Street","Phone":"922-414-6508","Company":"Batz-Crona"},
{"Name":"Denys Hanbury","Location":"76253 Roth Junction","Phone":"236-512-2926","Company":"Ortiz Group"},
{"Name":"Wolf Burchard","Location":"55 Manley Center","Phone":"991-102-7187","Company":"Hilpert-Yundt"},
{"Name":"Darby Slatford","Location":"92013 Carberry Court","Phone":"481-991-3837","Company":"VonRueden LLC"},
{"Name":"Eadith Youtead","Location":"56762 Monterey Plaza","Phone":"841-117-4774","Company":"Koss, Gottlieb and Boehm"},
{"Name":"Ignacio Simon","Location":"4 Norway Maple Crossing","Phone":"224-914-9645","Company":"Aufderhar and Sons"},
{"Name":"Xymenes Vigars","Location":"6 Kropf Plaza","Phone":"472-556-4525","Company":"Hilll, Funk and Hayes"},
{"Name":"Travis Ferrotti","Location":"293 Johnson Road","Phone":"913-601-4984","Company":"Waelchi-Kassulke"},
{"Name":"Aldus Liddington","Location":"768 Brentwood Street","Phone":"396-272-8420","Company":"Nikolaus, Schiller and Considine"},
{"Name":"Hall Renney","Location":"196 Hallows Trail","Phone":"967-552-0896","Company":"Volkman and Sons"},
{"Name":"Herminia Kennion","Location":"9 Butternut Terrace","Phone":"207-374-5168","Company":"Legros and Sons"},
{"Name":"Ann Voelker","Location":"5 Pine View Trail","Phone":"742-994-7287","Company":"Jenkins, Emard and Farrell"},
{"Name":"Bourke Ambridge","Location":"1260 Tennessee Street","Phone":"977-383-0883","Company":"Conroy LLC"},
{"Name":"Ephraim Rickaby","Location":"5549 Carioca Point","Phone":"281-563-4953","Company":"Koss-Stark"},
{"Name":"Elfreda Orrah","Location":"937 Sage Parkway","Phone":"356-964-2456","Company":"Mitchell Group"},
{"Name":"Emerson Greiswood","Location":"5 Comanche Alley","Phone":"815-867-7909","Company":"Sawayn Group"},
{"Name":"Claiborn Fellman","Location":"8670 Everett Court","Phone":"976-474-5345","Company":"Balistreri, Kris and Metz"},
{"Name":"Kristy Jeavons","Location":"0 Harbort Alley","Phone":"583-114-6887","Company":"Schmeler, Oberbrunner and Morar"},
{"Name":"Elita Lilley","Location":"18 Washington Park","Phone":"117-176-5050","Company":"Monahan-Terry"},
{"Name":"Persis Tours","Location":"55207 Bultman Lane","Phone":"730-920-6219","Company":"Ritchie LLC"},
{"Name":"Burnard Cherrett","Location":"621 Harper Street","Phone":"122-924-4412","Company":"Kulas-Collins"},
{"Name":"Mufinella Pestor","Location":"215 Bobwhite Drive","Phone":"295-919-7343","Company":"Block, Raynor and Rowe"},
{"Name":"Fanya Parmeter","Location":"501 Continental Place","Phone":"287-509-3138","Company":"Lebsack-Luettgen"},
{"Name":"Alla Rapaport","Location":"626 Logan Terrace","Phone":"774-698-7797","Company":"Rutherford-Keebler"},
{"Name":"Chloette Alastair","Location":"13 Farmco Drive","Phone":"538-252-2096","Company":"Daugherty, Mayert and Legros"},
{"Name":"Melisa Colliver","Location":"3 Pankratz Pass","Phone":"401-356-5805","Company":"Kovacek Inc"},
{"Name":"Alvera Fransson","Location":"80429 Buhler Terrace","Phone":"193-711-9125","Company":"Borer Inc"},
{"Name":"Isabelle Hanner","Location":"61648 Monument Center","Phone":"131-358-0727","Company":"Rau Group"},
{"Name":"Elyn Pennycuick","Location":"690 Clarendon Terrace","Phone":"863-100-3126","Company":"Wiza LLC"},
{"Name":"Harmonie Ferier","Location":"736 Bluestem Lane","Phone":"666-847-8181","Company":"Murazik Group"},
{"Name":"Robbie Passman","Location":"32524 Ruskin Lane","Phone":"592-823-9228","Company":"Blick, Conn and Stokes"},
{"Name":"Anabal Flear","Location":"12346 Paget Court","Phone":"771-639-5584","Company":"Rogahn-Sanford"},
{"Name":"Silva Offer","Location":"710 Commercial Junction","Phone":"397-729-5861","Company":"Hansen-Crist"},
{"Name":"Mair Peaple","Location":"8 Anzinger Way","Phone":"915-960-6434","Company":"Cruickshank Inc"},
{"Name":"Cherilyn Anfusso","Location":"77422 Kingsford Park","Phone":"500-388-6515","Company":"Langosh-Turner"},
{"Name":"Tremaine Ivory","Location":"87229 Arizona Road","Phone":"713-819-2405","Company":"Fadel, Lowe and Schimmel"},
{"Name":"Maury Barneveld","Location":"10236 Di Loreto Alley","Phone":"214-235-0041","Company":"Spinka-Beatty"},
{"Name":"Dorelle Esslemont","Location":"3730 Hollow Ridge Drive","Phone":"936-375-2697","Company":"Cole, White and Lang"},
{"Name":"Maddalena Pleaden","Location":"00 Schiller Trail","Phone":"340-125-5481","Company":"Lubowitz, Nader and O'Kon"},
{"Name":"Scarlet Glanvill","Location":"99234 Stoughton Terrace","Phone":"744-198-3611","Company":"Schinner, Miller and Wiegand"},
{"Name":"Mela Seviour","Location":"0 Helena Lane","Phone":"578-788-5748","Company":"Fisher-Kohler"},
{"Name":"Martino Ghilardi","Location":"801 Brown Way","Phone":"210-184-5002","Company":"Wilkinson-Little"},
{"Name":"Anton Temporal","Location":"30 Transport Trail","Phone":"330-866-0996","Company":"Tremblay-Will"},
{"Name":"Nari Garstan","Location":"7963 Northridge Road","Phone":"981-622-0360","Company":"Spinka Inc"},
{"Name":"Porter Astbury","Location":"6936 Elmside Avenue","Phone":"333-121-1215","Company":"Rau-Kertzmann"},
{"Name":"Myca Pendreigh","Location":"2 Sutteridge Court","Phone":"204-403-1196","Company":"Hermann-Casper"},
{"Name":"Nerti Hodges","Location":"4602 6th Lane","Phone":"625-500-7587","Company":"Schiller, Leffler and Will"},
{"Name":"Justis Leale","Location":"46 Vahlen Trail","Phone":"879-900-5181","Company":"O'Conner-Lynch"},
{"Name":"Ivor McElhargy","Location":"868 Stuart Trail","Phone":"821-980-8075","Company":"Simonis and Sons"},
{"Name":"Mae Sappell","Location":"62303 Grayhawk Road","Phone":"976-740-8884","Company":"Boehm, Donnelly and Herman"},
{"Name":"Eldon MacAfee","Location":"5 Arrowood Junction","Phone":"851-334-9104","Company":"Cormier Inc"},
{"Name":"Marsh Hache","Location":"79336 Holmberg Place","Phone":"915-538-5973","Company":"Treutel, Aufderhar and Johnston"},
{"Name":"Dael Lipson","Location":"185 Goodland Center","Phone":"783-996-6932","Company":"Lakin, Carroll and Schneider"},
{"Name":"Wilton Burgin","Location":"3056 Oak Avenue","Phone":"472-690-4597","Company":"Stanton, Murphy and Rohan"},
{"Name":"Kale Konerding","Location":"2409 Larry Avenue","Phone":"451-616-4443","Company":"Jerde, Effertz and Jacobs"},
{"Name":"Annabal Feaveer","Location":"03 Calypso Plaza","Phone":"209-427-9373","Company":"Nicolas and Sons"},
{"Name":"Janella Mobius","Location":"4 Lakeland Hill","Phone":"635-834-0665","Company":"Wiza, Johnston and Swaniawski"},
{"Name":"Clea Pimmocke","Location":"0 Blackbird Court","Phone":"982-495-7600","Company":"Legros, Hirthe and Dooley"},
{"Name":"Mahmud Soot","Location":"9974 Sundown Court","Phone":"997-179-7369","Company":"Conn Inc"},
{"Name":"Pace Dominicacci","Location":"85745 Emmet Junction","Phone":"315-673-8140","Company":"Homenick, Erdman and Ratke"},
{"Name":"Sandro Cheke","Location":"6 Surrey Point","Phone":"612-714-5810","Company":"Smith-Feil"}]
